{"type":"FeatureCollection","features":[{"type":"Feature","id":1,"geometry":{"type":"Point","coordinates":[-122.25583227499999,37.865753233000078]},"properties":{"ObjectID":1,"Chron. No.":1,"Landmark":"*First Church of Christ, Scientist*","City’s No.":"#5","Address":"2619 Dwight Way","City":"Berkeley, CA","Architect & Date":"Bernard Maybeck (1910)","Initiated":"26 Feb 1975","Designated":"15 Dec 1975","Notes":"#77000283, National Historic Landmark(22 Dec 1977)"}},{"type":"Feature","id":2,"geometry":{"type":"Point","coordinates":[-122.25420551499997,37.862262967000049]},"properties":{"ObjectID":2,"Chron. No.":4,"Landmark":"*St. John’s Presbyterian Church* (now Julia Morgan Center for the Arts)","City’s No.":"#8","Address":"2640 College Avenue","City":"Berkeley, CA","Architect & Date":"Julia Morgan (1908, 1910)","Initiated":"26 Feb 1975","Designated":"15 Dec 1975","Notes":"#74000507, National Register of Historic Places (1974)"}},{"type":"Feature","id":3,"geometry":{"type":"Point","coordinates":[-122.26271976799995,37.867664894000029]},"properties":{"ObjectID":3,"Chron. No.":5,"Landmark":"*Berkeley Women’s City Club* (now Berkeley City Club)","City’s No.":"#2","Address":"2315 Durant Avenue","City":"Berkeley, CA","Architect & Date":"Julia Morgan (1929–30)","Initiated":"26 Feb 1975","Designated":"15 Dec 1975","Notes":"California Historic Landmark No. 908\n#77000282, National Register of Historic Places (1977)"}},{"type":"Feature","id":4,"geometry":{"type":"Point","coordinates":[-122.29596817999999,37.86974549200005]},"properties":{"ObjectID":4,"Chron. No.":3,"Landmark":"*Westminster Presbyterian Church*","City’s No.":"#7","Address":"926 Hearst Avenue & 1901 Eighth Street","City":"Berkeley, CA","Architect & Date":"Charles Geddes (1879)","Initiated":"26 Feb 1975","Designated":"15 Dec 1975","Notes":null}},{"type":"Feature","id":5,"geometry":{"type":"Point","coordinates":[-122.29486746799995,37.87005289800004]},"properties":{"ObjectID":5,"Chron. No.":2,"Landmark":"*Church of the Good Shepherd, Episcopal*","City’s No.":"#6","Address":"1823 Ninth Street at Hearst Avenue","City":"Berkeley, CA","Architect & Date":"Charles L. Bugbee (1878)","Initiated":"26 Feb 1975","Designated":"15 Dec 1975","Notes":"#86003361, National Register of Historic Places (1986)"}},{"type":"Feature","id":6,"geometry":{"type":"Point","coordinates":[-122.26057274399994,37.865121028000033]},"properties":{"ObjectID":6,"Chron. No.":6,"Landmark":"*Town and Gown Club*","City’s No.":"#3","Address":"2401 Dwight Way","City":"Berkeley, CA","Architect & Date":"Bernard Maybeck (1899)","Initiated":"26 Feb 1975","Designated":"15 Dec 1975","Notes":null}},{"type":"Feature","id":7,"geometry":{"type":"Point","coordinates":[-122.25177425999999,37.86904807600007]},"properties":{"ObjectID":7,"Chron. No.":8,"Landmark":"*William R. Thorsen House* (now Sigma Phi Society Chapter House)","City’s No.":"#4","Address":"2307 Piedmont Avenue","City":"Berkeley, CA","Architect & Date":"Charles Sumner Greene & Henry Mather Greene (1908–10)","Initiated":"26 Feb 1975","Designated":"15 Dec 1975","Notes":"#78000647, National Register of Historic Places (1978)"}},{"type":"Feature","id":8,"geometry":{"type":"Point","coordinates":[-122.29509553999998,37.862133215000028]},"properties":{"ObjectID":8,"Chron. No.":11,"Landmark":"*Edward F. Niehaus House*","City’s No.":"#11","Address":"839 Channing Way","City":"Berkeley, CA","Architect & Date":"-1889","Initiated":"24 Feb 1976","Designated":"21 Jun 1976","Notes":"CA State Historic Resources Inventory"}},{"type":"Feature","id":9,"geometry":{"type":"Point","coordinates":[-122.28298486299997,37.878905487000054]},"properties":{"ObjectID":9,"Chron. No.":10,"Landmark":"*Old Jefferson Elementary School*","City’s No.":"#117","Address":"1475 Rose Street at Sacramento Street","City":"Berkeley, CA","Architect & Date":"Henry Higby Gutterson (c. 1921); William C. Hays (1927)","Initiated":null,"Designated":"11 May 1976","Notes":"Structure of Merit\nDesignated Landmark on 16 Mar 1987"}},{"type":"Feature","id":10,"geometry":{"type":"Point","coordinates":[-122.26116204399995,37.883144315000038]},"properties":{"ObjectID":10,"Chron. No.":9,"Landmark":"*Rose Walk*","City’s No.":"#9","Address":"2500 block of Rose Walk between Euclid & Le Roy Avenues","City":"Berkeley, CA","Architect & Date":"Bernard Maybeck (1913); Dr. Frank Gray Cottages by Henry Higby Gutterson \n(1923–36)","Initiated":"26 Feb 1975","Designated":"15 Dec 1975","Notes":"Amended 25 Feb 1991 as Landmark #165to include Gutterson-designed cottages \n& Jessie D. Wallace House (Julia Morgan, 1910; 1923), 1400 Le Roy Avenue; \nCA State Historic Resources Inventory"}},{"type":"Feature","id":11,"geometry":{"type":"Point","coordinates":[-122.26360087399996,37.874773209000068]},"properties":{"ObjectID":11,"Chron. No.":12,"Landmark":"*Joseph W. Harris House*","City’s No.":"#14","Address":"2300 Le Conte Avenue","City":"Berkeley, CA","Architect & Date":"John B. Anthony (1936)","Initiated":"24 Feb 1976","Designated":"21 Jun 1976","Notes":"CA State Historic Resources Inventory"}},{"type":"Feature","id":12,"geometry":{"type":"Point","coordinates":[-122.27283324699999,37.850384741000028]},"properties":{"ObjectID":12,"Chron. No.":13,"Landmark":"*Park Congregational Church* (now South Berkeley Community Church)","City’s No.":"#10","Address":"1802 Fairview Street at Ellis Street","City":"Berkeley, CA","Architect & Date":"Hugo W. Storch (1912)","Initiated":"24 Feb 1976","Designated":"21 Jun 1976","Notes":"#7001176, National Register of Historic Places (15 Nov 2007)"}},{"type":"Feature","id":13,"geometry":{"type":"Point","coordinates":[-122.26667284099995,37.884031440000058]},"properties":{"ObjectID":13,"Chron. No.":14,"Landmark":"*Napoleon Bonaparte Byrne House & Grounds* (The Cedars)","City’s No.":"#13","Address":"1301 Oxford Street","City":"Berkeley, CA","Architect & Date":"-1868","Initiated":"24 Feb 1976","Designated":"21 Jun 1976","Notes":"#78000643, National Register of Historic Places (1990); house destroyed by \nfires in 1984 & ’85 and demolished in 1988"}},{"type":"Feature","id":14,"geometry":{"type":"Point","coordinates":[-122.26729888599999,37.879130667000027]},"properties":{"ObjectID":14,"Chron. No.":15,"Landmark":"*Captain Charles C. Boudrow House* (Boudrow House at Sea Captain Corner)","City’s No.":"#12","Address":"1536 Oxford Street","City":"Berkeley, CA","Architect & Date":"Julius E. Krafft (1889)","Initiated":"24 Feb 1976","Designated":"21 Jun 1976","Notes":"CA State Historic Resources Inventory"}},{"type":"Feature","id":15,"geometry":{"type":"Point","coordinates":[-122.25798374099998,37.88116394900004]},"properties":{"ObjectID":15,"Chron. No.":16,"Landmark":"*Andrew Cowper Lawson House*","City’s No.":"#15","Address":"1515 La Loma Avenue","City":"Berkeley, CA","Architect & Date":"Bernard Maybeck (1907–08)","Initiated":"24 Feb 1976","Designated":"16 Aug 1976","Notes":"CA State Historic Resources Inventory"}},{"type":"Feature","id":16,"geometry":{"type":"Point","coordinates":[-122.26047568099995,37.883101049000061]},"properties":{"ObjectID":16,"Chron. No.":20,"Landmark":"*John Galen Howard House* (“Rose Le Roy”)","City’s No.":"#19","Address":"1401 Le Roy Avenue","City":"Berkeley, CA","Architect & Date":"John Galen Howard (1912)","Initiated":"17 Jan 1977","Designated":"21 Mar 1977","Notes":"CA State Historic Resources Inventory"}},{"type":"Feature","id":17,"geometry":{"type":"Point","coordinates":[-122.29698423399998,37.867130087000078]},"properties":{"ObjectID":17,"Chron. No.":19,"Landmark":"*Berkeley Day Nursery* (West Berkeley Children’s Center)","City’s No.":"#18","Address":"2031 Sixth Street","City":"Berkeley, CA","Architect & Date":"Walter H. Ratcliff, Jr. (1927)","Initiated":"21 May 1976","Designated":"22 Feb 1977","Notes":"#77000281, National Register of Historic Places (1977)"}},{"type":"Feature","id":18,"geometry":{"type":"Point","coordinates":[-122.26906025899996,37.871249415000079]},"properties":{"ObjectID":18,"Chron. No.":21,"Landmark":"*Golden Sheaf Bakery*","City’s No.":"#20","Address":"2071 Addison Street","City":"Berkeley, CA","Architect & Date":"Clinton Day (1905)","Initiated":"12 Sep 1977","Designated":"17 Oct 1977","Notes":"#78000644, National Register of Historic Places (1978)"}},{"type":"Feature","id":19,"geometry":{"type":"Point","coordinates":[-122.26797807099996,37.864110338000046]},"properties":{"ObjectID":19,"Chron. No.":23,"Landmark":"*Barker Block*","City’s No.":"#22","Address":"2486 Shattuck Avenue","City":"Berkeley, CA","Architect & Date":"A.W. Smith (1905)","Initiated":"17 Oct 1977","Designated":"16 Jan 1978","Notes":"CA State Historic Resources Inventory"}},{"type":"Feature","id":20,"geometry":{"type":"Point","coordinates":[-122.26828501699998,37.871167021000076]},"properties":{"ObjectID":20,"Chron. No.":24,"Landmark":"*The Studio Building* (The Berkeley Hotel)","City’s No.":"#23","Address":"2045 Shattuck Avenue at Addison Street","City":"Berkeley, CA","Architect & Date":"-1905","Initiated":"17 Apr 1978","Designated":"15 May 1978","Notes":"#78000645, National Register of Historic Places (1978)"}},{"type":"Feature","id":21,"geometry":{"type":"Point","coordinates":[-122.28261496999994,37.87018001000007]},"properties":{"ObjectID":21,"Chron. No.":25,"Landmark":"*Fox Court*","City’s No.":"#24","Address":"1472–1478 University Avenue","City":"Berkeley, CA","Architect & Date":"Fox Brothers; Carl Fox, designer (1928–30)","Initiated":"25 Sep 1978","Designated":"20 Nov 1978","Notes":"#82002159, National Register of Historic Places (1982)"}},{"type":"Feature","id":22,"geometry":{"type":"Point","coordinates":[-122.30022811399999,37.872859495000057]},"properties":{"ObjectID":22,"Chron. No.":22,"Landmark":"*Borja House* (Jucksch Cottage)","City’s No.":"#21","Address":"1629 Fifth Street","City":"Berkeley, CA","Architect & Date":"Mary Jucksch or Charles R. Brown (c. 1889)","Initiated":"9 Nov 1977","Designated":"19 Dec 1977","Notes":"Structure of Merit\nMoved from 1620 Sixth St. in 1978"}},{"type":"Feature","id":23,"geometry":{"type":"Point","coordinates":[-122.24786812499997,37.859201728000073]},"properties":{"ObjectID":23,"Chron. No.":29,"Landmark":"*Jeremiah T. Burke House* (Judah L. Magnes Memorial Museum 1966–2009)","City’s No.":"#27","Address":"2911 Russell Street","City":"Berkeley, CA","Architect & Date":"D.J. Patterson (1908)","Initiated":"15 Mar 1979","Designated":"14 May 1979","Notes":"CA State Historic Resources Inventory"}},{"type":"Feature","id":24,"geometry":{"type":"Point","coordinates":[-122.27189468299997,37.871179845000029]},"properties":{"ObjectID":24,"Chron. No.":26,"Landmark":"*Bonita Apartments*","City’s No.":"#25","Address":"1940 University Avenue","City":"Berkeley, CA","Architect & Date":"George L. Mohr (1905)","Initiated":"8 Dec 1978","Designated":"15 Jan 1979","Notes":"CA State Historic Resources Inventory"}},{"type":"Feature","id":25,"geometry":{"type":"Point","coordinates":[-122.27218243399994,37.872776933000068]},"properties":{"ObjectID":25,"Chron. No.":27,"Landmark":"*Bonita Hall* (Berkeley Bay Commons)","City’s No.":"#26","Address":"1912–1918 Bonita Avenue","City":"Berkeley, CA","Architect & Date":"William G. Black (1905); remodel: Clarence W. W. Mayhew (1936)","Initiated":"20 Nov 1978","Designated":"20 Feb 1979","Notes":null}},{"type":"Feature","id":26,"geometry":{"type":"Point","coordinates":[-122.29354069699997,37.870701909000047]},"properties":{"ObjectID":26,"Chron. No.":31,"Landmark":"*Toverii Tuppa* (Finnish Hall)","City’s No.":"#31","Address":"1819 Tenth Street","City":"Berkeley, CA","Architect & Date":"August Trille (1908)","Initiated":"18 Jun 1979","Designated":"16 Jul 1979","Notes":"#78000647, National Register of Historic Places (1978)"}},{"type":"Feature","id":27,"geometry":{"type":"Point","coordinates":[-122.29960290799994,37.869309298000076]},"properties":{"ObjectID":27,"Chron. No.":28,"Landmark":"*Manuel Silva House*","City’s No.":"#28","Address":"1824 Fifth Street","City":"Berkeley, CA","Architect & Date":"Joseph Alfonso (1870s)","Initiated":"20 Mar 1979","Designated":"14 May 1979","Notes":"CA State Historic Resources Inventory"}},{"type":"Feature","id":28,"geometry":{"type":"Point","coordinates":[-122.27027404199998,37.873029941000027]},"properties":{"ObjectID":28,"Chron. No.":32,"Landmark":"*Samuel C. Clark Cottage* (Morning Glory House; Dick Moore’s; Joseph Clapp \nCottage)","City’s No.":"#30","Address":"2009 Berkeley Way","City":"Berkeley, CA","Architect & Date":"(c. 1886)","Initiated":"13 Jun 1979","Designated":"16 Jul 1979","Notes":"CA State Historic Resources Inventory"}},{"type":"Feature","id":29,"geometry":{"type":"Point","coordinates":[-122.26824034099997,37.867737691000059]},"properties":{"ObjectID":29,"Chron. No.":30,"Landmark":"*Morse Block* (Donogh Arms)","City’s No.":"#29","Address":"2276 Shattuck Avenue","City":"Berkeley, CA","Architect & Date":"Dickey & Reed (1906)","Initiated":"18 Dec 1978","Designated":"18 Jun 1979","Notes":"CA State Historic Resources Inventory"}},{"type":"Feature","id":30,"geometry":{"type":"Point","coordinates":[-122.25493599799995,37.868977207000057]},"properties":{"ObjectID":30,"Chron. No.":34,"Landmark":"*College Women’s Club* (now Bancroft Hotel)","City’s No.":"#33","Address":"2680 Bancroft Way","City":"Berkeley, CA","Architect & Date":"Walter T. Steilberg (1928)","Initiated":"17 Sep 1979","Designated":"19 Nov 1979","Notes":"#82002157, National Register of Historic Places (1982)"}},{"type":"Feature","id":31,"geometry":{"type":"Point","coordinates":[-122.25616755099998,37.864327304000028]},"properties":{"ObjectID":31,"Chron. No.":36,"Landmark":"*Miss Eleanor M. Smith House & Cottage*","City’s No.":"#36","Address":"2529 & 2527 Hillegass Avenue","City":"Berkeley, CA","Architect & Date":"House: Seth Babson? (1902); Cottage: Henry Higby Gutterson (1927)","Initiated":"17 Dec 1979","Designated":"17 Jan 1980","Notes":"Smith House demolished in late 1980s; CA State Historic Resources Inventory"}},{"type":"Feature","id":32,"geometry":{"type":"Point","coordinates":[-122.29981195299996,37.869828179000081]},"properties":{"ObjectID":32,"Chron. No.":33,"Landmark":"*Charles W. Heywood House* (Estrada House)","City’s No.":"#32","Address":"1808 Fifth Street","City":"Berkeley, CA","Architect & Date":"-1878","Initiated":"1 Aug 1979","Designated":"17 Sep 1979","Notes":"CA State Historic Resources Inventory"}},{"type":"Feature","id":33,"geometry":{"type":"Point","coordinates":[-122.26998260399995,37.868660957000031]},"properties":{"ObjectID":33,"Chron. No.":38,"Landmark":"*United States Post Office*","City’s No.":"#38","Address":"2000 Allston Way","City":"Berkeley, CA","Architect & Date":"Oscar Wenderoth (1914)","Initiated":"21 Apr 1980","Designated":"16 Jun 1980","Notes":"Civic Center Historic District; #81000144, National Register of Historic \nPlaces (1982)"}},{"type":"Feature","id":34,"geometry":{"type":"Point","coordinates":[-122.26838601899999,37.882198988000027]},"properties":{"ObjectID":34,"Chron. No.":37,"Landmark":"*Garfield Junior High School* (Berkeley Unified School District \nAdministration; now Jewish Community Center)","City’s No.":"#37","Address":"1414 Walnut Street at Rose Street","City":"Berkeley, CA","Architect & Date":"Ernest Coxhead (1915)","Initiated":"21 Apr 1980","Designated":"20 May 1980","Notes":"#82002160, National Register of Historic Places (1982)"}},{"type":"Feature","id":35,"geometry":{"type":"Point","coordinates":[-122.26882061999999,37.866829218000078]},"properties":{"ObjectID":35,"Chron. No.":40,"Landmark":"*Boone’s University School*","City’s No.":"#40","Address":"2029 Durant Avenue","City":"Berkeley, CA","Architect & Date":"(c. 1877–1878)","Initiated":"15 Dec 1980","Designated":"16 Mar 1981","Notes":"#82000994, National Register of Historic Places (1982)"}},{"type":"Feature","id":36,"geometry":{"type":"Point","coordinates":[-122.26799709799997,37.871650782000074]},"properties":{"ObjectID":36,"Chron. No.":39,"Landmark":"*Roos Brothers Building*","City’s No.":"#78","Address":"64 Shattuck Square","City":"Berkeley, CA","Architect & Date":"James R. Miller & Timothy L. Pflueger (1926)","Initiated":"15 Sep 1980","Designated":"20 Oct 1980","Notes":"Included in Shattuck Square designation as Landmark #78 [see nos. 48 & 82] \non 27 Feb 1984; CA State Historic Resources Inventory"}},{"type":"Feature","id":37,"geometry":{"type":"Point","coordinates":[-122.25666818699995,37.855567539000049]},"properties":{"ObjectID":37,"Chron. No.":42,"Landmark":"*Alta Bates Hospital*","City’s No.":null,"Address":"3000 Regent Street","City":"Berkeley, CA","Architect & Date":"Clarence C. Cuff (1927)","Initiated":"3 Apr 1981","Designated":"15 Jun 1981","Notes":"Structure of Merit\nCA State Historic Resources Inventory; demolished in 1981"}},{"type":"Feature","id":38,"geometry":{"type":"Point","coordinates":[-122.26871534399999,37.871282398000062]},"properties":{"ObjectID":38,"Chron. No.":41,"Landmark":"*S. H. Kress & Co. Building*","City’s No.":"#41","Address":"2036 Shattuck Avenue","City":"Berkeley, CA","Architect & Date":"Edward F. Sibbert (1933)","Initiated":"16 Mar 1981","Designated":"20 Apr 1981","Notes":"CA State Historic Resources Inventory"}},{"type":"Feature","id":39,"geometry":{"type":"Point","coordinates":[-122.26611804299995,37.869884799000033]},"properties":{"ObjectID":39,"Chron. No.":43,"Landmark":"*William T. Such Building* (Oxford Hall)","City’s No.":"#43","Address":"2140 Oxford Street","City":"Berkeley, CA","Architect & Date":"George L. Mohr (1906)","Initiated":"29 Jun 1981","Designated":"17 Aug 1981","Notes":"CA State Historic Resources Inventory"}},{"type":"Feature","id":40,"geometry":{"type":"Point","coordinates":[-122.25211669099997,37.868932105000056]},"properties":{"ObjectID":40,"Chron. No.":45,"Landmark":"*Corder Building* (Shattuck Apartments; Whitecotton Building; Witter \nBuilding)","City’s No.":"#44","Address":"2300–2350 Shattuck Avenue (bet. Bancroft Way & Durant Ave)","City":"Berkeley, CA","Architect & Date":"James W. Plachek (1921)","Initiated":"21 Sep 1981","Designated":"19 Oct 1981","Notes":"#82002158, National Register of Historic Places"}},{"type":"Feature","id":41,"geometry":{"type":"Point","coordinates":[-122.25655403999997,37.867209002000038]},"properties":{"ObjectID":41,"Chron. No.":46,"Landmark":"*The Anna Head School* (Miss Head’s Preparatory School for Girls)","City’s No.":"#45","Address":"2538 Channing Way at Bowditch Street","City":"Berkeley, CA","Architect & Date":"Soul\uFFFD Edgar Fisher (1892); Walter H. Ratcliff, Jr. (1911–1927)","Initiated":"21 Sep 1981","Designated":"16 Nov 1981","Notes":"#80000795, National Register of Historic Places (1980)"}},{"type":"Feature","id":42,"geometry":{"type":"Point","coordinates":[-122.25794183199997,37.868711710000071]},"properties":{"ObjectID":42,"Chron. No.":49,"Landmark":"*Fred Turner Building*","City’s No.":"#49","Address":"2546 Bancroft Way","City":"Berkeley, CA","Architect & Date":"Julia Morgan (1940)","Initiated":"19 Oct 1981","Designated":"21 Dec 1981","Notes":null}},{"type":"Feature","id":43,"geometry":{"type":"Point","coordinates":[-122.25762329999998,37.871407200000078]},"properties":{"ObjectID":43,"Chron. No.":47,"Landmark":"*Haviland Hall*","City’s No.":"#46","Address":"University of California Campus","City":"Berkeley, CA","Architect & Date":"John Galen Howard (1924)","Initiated":"21 Sep 1981","Designated":"16 Nov 1981","Notes":"#82002161, National Register of Historic Places (1982)"}},{"type":"Feature","id":44,"geometry":{"type":"Point","coordinates":[-122.26145099999997,37.868424001000051]},"properties":{"ObjectID":44,"Chron. No.":48,"Landmark":"*First Unitarian Church* (now University Dance Studio)","City’s No.":"#48","Address":"2401 Bancroft Way at Dana Street","City":"Berkeley, CA","Architect & Date":"Albert Cicero Schweinfurth (1898)","Initiated":"21 Sep 1981","Designated":"16 Nov 1981","Notes":"#81000143, National Register of Historic Places (1981)"}},{"type":"Feature","id":45,"geometry":{"type":"Point","coordinates":[-122.26652766699999,37.873046956000053]},"properties":{"ObjectID":45,"Chron. No.":50,"Landmark":"*Richfield Oil Co. Station* (University Garage)","City’s No.":"#50","Address":"1952 Oxford Street","City":"Berkeley, CA","Architect & Date":"Walter H. Ratcliff, Jr. (1930)","Initiated":"16 Nov 1981","Designated":"21 Dec 1981","Notes":"CA State Historic Resources Inventory; demolished by U.C. in late 2021 for \nthe Gateway student housing project."}},{"type":"Feature","id":46,"geometry":{"type":"Point","coordinates":[-122.25903038999996,37.865318296000055]},"properties":{"ObjectID":46,"Chron. No.":51,"Landmark":"*James Edgar House*","City’s No.":"#47","Address":"2437 Dwight Way","City":"Berkeley, CA","Architect & Date":"(c. 1869)","Initiated":"21 Sep 1981","Designated":"21 Dec 1981","Notes":"Structure of Merit"}},{"type":"Feature","id":47,"geometry":{"type":"Point","coordinates":[-122.29262933199999,37.867865766000079]},"properties":{"ObjectID":47,"Chron. No.":54,"Landmark":"*Bartine Carrington House*","City’s No.":"#54","Address":"1029 Addison Street","City":"Berkeley, CA","Architect & Date":"Seth Babson & R. Wenk (1893)","Initiated":"21 Dec 1981","Designated":"15 Mar 1982","Notes":"Structure of Merit\nCA State Historic Resources Inventory; moved from 2323 Bowditch St. and \naltered beyond recognition"}},{"type":"Feature","id":48,"geometry":{"type":"Point","coordinates":[-122.29300173999997,37.862054258000057]},"properties":{"ObjectID":48,"Chron. No.":53,"Landmark":"*First Finnish Evangelical Lutheran Church* (now Grace Baptist Church)","City’s No.":"#52","Address":"936 Channing Way","City":"Berkeley, CA","Architect & Date":"Rev. Bernhardt Gideon Fardig (1901)","Initiated":"20 Jan 1982","Designated":"22 Feb 1982","Notes":null}},{"type":"Feature","id":49,"geometry":{"type":"Point","coordinates":[-122.26784396099998,37.86758300300005]},"properties":{"ObjectID":49,"Chron. No.":52,"Landmark":"*Masonic Temple*","City’s No.":"#51","Address":"2105 Bancroft Way at Shattuck Avenue","City":"Berkeley, CA","Architect & Date":"William Wharff (1905)","Initiated":"21 Sep 1981","Designated":"20 Jan 1982","Notes":"#82002162, National Register of Historic Places (1982)"}},{"type":"Feature","id":50,"geometry":{"type":"Point","coordinates":[-122.25305300299999,37.857040999000048]},"properties":{"ObjectID":50,"Chron. No.":55,"Landmark":"*Mercantile Trust Co.* (now Wells Fargo Bank)","City’s No.":"#53","Address":"2959 College Avenue at Ashby Avenue","City":"Berkeley, CA","Architect & Date":"Walter H. Ratcliff, Jr. (1925)","Initiated":"20 Jan 1982","Designated":"15 Mar 1982","Notes":"CA State Historic Resources Inventory"}},{"type":"Feature","id":51,"geometry":{"type":"Point","coordinates":[-122.26631795199995,37.868055742000024]},"properties":{"ObjectID":51,"Chron. No.":56,"Landmark":"*Odd Fellows’ Temple*","City’s No.":"#55","Address":"2288 Fulton Street","City":"Berkeley, CA","Architect & Date":"James W. Plachek (1925)","Initiated":"22 Feb 1982","Designated":"19 Apr 1982","Notes":"CA State Historic Resources Inventory"}},{"type":"Feature","id":52,"geometry":{"type":"Point","coordinates":[-122.25330387299999,37.856671106000078]},"properties":{"ObjectID":52,"Chron. No.":58,"Landmark":"*Strand Theater* (now Elmwood Theater)","City’s No.":"#57","Address":"2966 College Avenue","City":"Berkeley, CA","Architect & Date":"William Dufour (1914); Alexander Aimwell Cantin & Alexander Mackenzie \nCantin (1946)","Initiated":"22 Feb 1982","Designated":"24 May 1982","Notes":"CA State Historic Resources Inventory"}},{"type":"Feature","id":53,"geometry":{"type":"Point","coordinates":[-122.27226985699997,37.84792894900005]},"properties":{"ObjectID":53,"Chron. No.":59,"Landmark":"*Lorin Theater* (now Phillips Temple C.M.E. Church)","City’s No.":"#58","Address":"3332 Adeline Street","City":"Berkeley, CA","Architect & Date":"Abel Roust, builder (1909, 1910); Hiram K. Lovell (1914); James W. Plachek \n(1920)","Initiated":"19 Apr 1982","Designated":"24 May 1982","Notes":"CA State Historic Resources Inventory"}},{"type":"Feature","id":54,"geometry":{"type":"Point","coordinates":[-122.26794999199996,37.868489003000036]},"properties":{"ObjectID":54,"Chron. No.":57,"Landmark":"*Berkeley Public Library*","City’s No.":"#56","Address":"2090 Kittredge Street at Shattuck Avenue","City":"Berkeley, CA","Architect & Date":"James W. Plachek (1930)","Initiated":"22 Feb 1982","Designated":"19 Apr 1982","Notes":"#82002156, National Register of Historic Places (1982)"}},{"type":"Feature","id":55,"geometry":{"type":"Point","coordinates":[-122.25570277399999,37.87567350900008]},"properties":{"ObjectID":55,"Chron. No.":60,"Landmark":"*Phi Delta Theta Chapter House*","City’s No.":"#59","Address":"2717 Hearst Avenue at Highland Place","City":"Berkeley, CA","Architect & Date":"John Reid, Jr. (1914)","Initiated":"19 Apr 1982","Designated":"24 May 1982","Notes":"#83001172, National Register of Historic Places (1983)"}},{"type":"Feature","id":56,"geometry":{"type":"Point","coordinates":[-122.27190624999997,37.848866464000025]},"properties":{"ObjectID":56,"Chron. No.":63,"Landmark":"*South Berkeley Bank* (Wells Fargo Bank)","City’s No.":"#62","Address":"3286 Adeline Street","City":"Berkeley, CA","Architect & Date":"John Galen Howard (1906)","Initiated":"21 Jun 1982","Designated":"19 Jul 1982","Notes":"CA State Historic Resources Inventory"}},{"type":"Feature","id":57,"geometry":{"type":"Point","coordinates":[-122.30023557399994,37.869753329000048]},"properties":{"ObjectID":57,"Chron. No.":61,"Landmark":"*Young-Ghego House* (Heywood-Ghego House)","City’s No.":"#60","Address":"1809–1811 Fourth Street","City":"Berkeley, CA","Architect & Date":"possibly late 1870s–early 1880s","Initiated":"19 Apr 1982","Designated":"21 Jun 1982","Notes":"CA State Historic Resources Inventory"}},{"type":"Feature","id":58,"geometry":{"type":"Point","coordinates":[-122.27145605799996,37.849973882000029]},"properties":{"ObjectID":58,"Chron. No.":65,"Landmark":"*Carlson’s Block*","City’s No.":"#64","Address":"3228 Adeline Street","City":"Berkeley, CA","Architect & Date":"William Wharff (1903)","Initiated":"21 Jun 1982","Designated":"19 Jul 1982","Notes":"CA State Historic Resources Inventory"}},{"type":"Feature","id":59,"geometry":{"type":"Point","coordinates":[-122.26032204099999,37.88087598900006]},"properties":{"ObjectID":59,"Chron. No.":62,"Landmark":"*Hillside School*","City’s No.":"#61","Address":"1581 Le Roy Avenue at Buena Vista Way","City":"Berkeley, CA","Architect & Date":"Walter H. Ratcliff, Jr. (1925)","Initiated":"24 May 1982","Designated":"21 Jun 1982","Notes":"#82000961, National Register of Historic Places (1982)"}},{"type":"Feature","id":60,"geometry":{"type":"Point","coordinates":[-122.27114902899996,37.849674983000057]},"properties":{"ObjectID":60,"Chron. No.":64,"Landmark":"*India Block*","City’s No.":"#63","Address":"3250 Adeline Street at Harmon Street","City":"Berkeley, CA","Architect & Date":"A.W. Smith (1903)","Initiated":"21 Jun 1982","Designated":"19 Jul 1982","Notes":"CA State Historic Resources Inventory"}},{"type":"Feature","id":61,"geometry":{"type":"Point","coordinates":[-122.26732470199994,37.872530128000051]},"properties":{"ObjectID":61,"Chron. No.":69,"Landmark":"*Acheson Physicians’ Building*","City’s No.":"#68","Address":"2131 University Avenue","City":"Berkeley, CA","Architect & Date":"George L. Mohr (1908)","Initiated":"20 Sep 1982","Designated":"17 Jan 1983","Notes":"CA State Historic Resources Inventory"}},{"type":"Feature","id":62,"geometry":{"type":"Point","coordinates":[-122.25828900999994,37.875338987000077]},"properties":{"ObjectID":62,"Chron. No.":67,"Landmark":"*Beta Theta Pi Chapter House* (now Goldman School of Public Policy)","City’s No.":"#66","Address":"2607 Hearst Avenue at Le Roy Avenue","City":"Berkeley, CA","Architect & Date":"Ernest Coxhead (1893)","Initiated":"20 Sep 1982","Designated":"15 Nov 1982","Notes":null}},{"type":"Feature","id":63,"geometry":{"type":"Point","coordinates":[-122.26934901499999,37.883134157000029]},"properties":{"ObjectID":63,"Chron. No.":68,"Landmark":"*Captain Maury House*","City’s No.":"#67","Address":"1317 Shattuck Avenue","City":"Berkeley, CA","Architect & Date":"Unknown (c. 1885); John Hudson Thomas (1922)","Initiated":"15 Nov 1982","Designated":"20 Dec 1982","Notes":null}},{"type":"Feature","id":64,"geometry":{"type":"Point","coordinates":[-122.27356977399995,37.868736149000028]},"properties":{"ObjectID":64,"Chron. No.":71,"Landmark":"*Old City Hall Annex*","City’s No.":"#122","Address":"1835 Allston Way","City":"Berkeley, CA","Architect & Date":"James W. Plachek (1925)","Initiated":"17 Jan 1983","Designated":"14 Feb 1983","Notes":"Structure of Merit\nDesignated Landmark on 21 Nov 1988; Civic Center Historic District"}},{"type":"Feature","id":65,"geometry":{"type":"Point","coordinates":[-122.26597001899995,37.85657500700006]},"properties":{"ObjectID":65,"Chron. No.":73,"Landmark":"*Knox Presbyterian Church* (now Church by the Side of the Road)","City’s No.":"#70","Address":"2108 Russell Street","City":"Berkeley, CA","Architect & Date":"Henry F. Starbuck (1908)","Initiated":null,"Designated":"21 Jun 1983","Notes":"Structure of Merit"}},{"type":"Feature","id":66,"geometry":{"type":"Point","coordinates":[-122.26840697299997,37.872185003000027]},"properties":{"ObjectID":66,"Chron. No.":70,"Landmark":"*United Stores Realty Corp. Building* (MacFarlane “Awful Fresh Candy & \nNuts” Building)","City’s No.":"#110","Address":"1987–1979 Shattuck Avenue at University Avenue","City":"Berkeley, CA","Architect & Date":"Earle B. Bertz (1925)","Initiated":"20 Sep 1982","Designated":"17 Jan 1983","Notes":"Structure of Merit\nDesignated Landmark on 15 Sep 1986; CA State Historic Resources Inventory"}},{"type":"Feature","id":67,"geometry":{"type":"Point","coordinates":[-122.26825567999998,37.868557357000043]},"properties":{"ObjectID":67,"Chron. No.":72,"Landmark":"*Shattuck Hotel*","City’s No.":"#69","Address":"2200–2240 Shattuck Avenue bet. Kittredge St. & Allston Way","City":"Berkeley, CA","Architect & Date":"Benjamin G. McDougall (1909–13)","Initiated":null,"Designated":"16 May 1983 & 9 Nov 1987","Notes":"CA State Historic Resources Inventory\nDesignation expanded in 1987 to include entire block."}},{"type":"Feature","id":68,"geometry":{"type":"Point","coordinates":[-122.27046339999998,37.869057300000065]},"properties":{"ObjectID":68,"Chron. No.":75,"Landmark":"*Hillside Club Street Improvements in the Daley’s Scenic Park Tract* \n(includes Annie’s Oak)","City’s No.":"#72","Address":null,"City":"Berkeley, CA","Architect & Date":"Hillside Club/City Engineer (1909)","Initiated":"16 May 1983","Designated":"18 Jul 1983","Notes":"Amended on 4 Aug 1997 to include both public and private street improvements"}},{"type":"Feature","id":69,"geometry":{"type":"Point","coordinates":[-122.24507351499994,37.857334911000066]},"properties":{"ObjectID":69,"Chron. No.":74,"Landmark":"*John Muir School*","City’s No.":"#71","Address":"2955 Claremont Avenue","City":"Berkeley, CA","Architect & Date":"James W. Plachek (1915)","Initiated":"21 Jun 1983","Designated":"18 Jul 1983","Notes":"CA State Historic Resources Inventory"}},{"type":"Feature","id":70,"geometry":{"type":"Point","coordinates":[-122.25850199499996,37.876272019000055]},"properties":{"ObjectID":70,"Chron. No.":66,"Landmark":"*Cloyne Court Hotel* (now Cloyne Court co-op)","City’s No.":"#65","Address":"2600 Ridge Road at Le Roy Avenue","City":"Berkeley, CA","Architect & Date":"John Galen Howard (1904)","Initiated":"20 Sep 1982","Designated":"15 Nov 1982","Notes":"#92001718, National Register of Historic Places (1992)"}},{"type":"Feature","id":71,"geometry":{"type":"Point","coordinates":[-122.26577203799997,37.866934998000033]},"properties":{"ObjectID":71,"Chron. No.":77,"Landmark":"*Howard Automobile Co. Showroom*","City’s No.":"#74","Address":"2140 Durant Avenue at Fulton Street","City":"Berkeley, CA","Architect & Date":"Frederick H. Reimers (1930)","Initiated":"19 Sep 1983","Designated":"17 Oct 1983","Notes":"CA State Historic Resources Inventory"}},{"type":"Feature","id":72,"geometry":{"type":"Point","coordinates":[-122.26730777099999,37.867245212000057]},"properties":{"ObjectID":72,"Chron. No.":76,"Landmark":"*Fidelity Guaranty Building & Loan Assn. Building*","City’s No.":"#73","Address":"2323 Shattuck Avenue","City":"Berkeley, CA","Architect & Date":"Walter H. Ratcliff, Jr. (1925)","Initiated":"19 Sep 1983","Designated":"17 Oct 1983","Notes":"CA State Historic Resources Inventory"}},{"type":"Feature","id":73,"geometry":{"type":"Point","coordinates":[-122.29980608599999,37.873471751000068]},"properties":{"ObjectID":73,"Chron. No.":78,"Landmark":"*Charles R. Brown House*","City’s No.":"#75","Address":"1614 Sixth Street","City":"Berkeley, CA","Architect & Date":"Frank Gimbal (1888)","Initiated":"17 Oct 1983","Designated":"21 Nov 1983","Notes":"CA State Historic Resources Inventory"}},{"type":"Feature","id":74,"geometry":{"type":"Point","coordinates":[-122.26718992099995,37.870126156000026]},"properties":{"ObjectID":74,"Chron. No.":79,"Landmark":"*Mikkelsen & Berry Building*","City’s No.":"#76","Address":"2124–2126 Center Street","City":"Berkeley, CA","Architect & Date":"Louis S. Stone & Henry C. Smith (1902)","Initiated":"21 Nov 1983","Designated":"19 Dec 1983","Notes":null}},{"type":"Feature","id":75,"geometry":{"type":"Point","coordinates":[-122.26778687999996,37.863760687000024]},"properties":{"ObjectID":75,"Chron. No.":81,"Landmark":"*Shattuck Square Building*","City’s No.":"#78","Address":"48 Shattuck Square","City":"Berkeley, CA","Architect & Date":"James R. Miller & Timothy L. Pflueger (1926)","Initiated":"23 Jan 1984","Designated":"27 Feb 1984","Notes":"CA State Historic Resources Inventory"}},{"type":"Feature","id":76,"geometry":{"type":"Point","coordinates":[-122.25672473599997,37.867245131000061]},"properties":{"ObjectID":76,"Chron. No.":83,"Landmark":"*Samuel G. Davis House*","City’s No.":"#79","Address":"2547 Channing Way","City":"Berkeley, CA","Architect & Date":"William Mooser & Son (1899)","Initiated":"23 Jan 1984","Designated":"27 Feb 1984","Notes":"CA State Historic Resources Inventory"}},{"type":"Feature","id":77,"geometry":{"type":"Point","coordinates":[-122.26794001799999,37.871416005000071]},"properties":{"ObjectID":77,"Chron. No.":82,"Landmark":"*Shattuck Square Building*","City’s No.":"#78","Address":"82 Shattuck Square","City":"Berkeley, CA","Architect & Date":"James R. Miller & Timothy L. Pflueger (1926)","Initiated":"23 Jan 1984","Designated":"27 Feb 1984","Notes":"CA State Historic Resources Inventory"}},{"type":"Feature","id":78,"geometry":{"type":"Point","coordinates":[-122.26754296699994,37.864869990000045]},"properties":{"ObjectID":78,"Chron. No.":85,"Landmark":"*Morrill Apartments*","City’s No.":"#81","Address":"2429–2437 Shattuck Avenue at Haste Street","City":"Berkeley, CA","Architect & Date":"George F. King (1911)","Initiated":"16 Apr 1984","Designated":"21 May 1984","Notes":"CA State Historic Resources Inventory"}},{"type":"Feature","id":79,"geometry":{"type":"Point","coordinates":[-122.26739267899995,37.868149661000075]},"properties":{"ObjectID":79,"Chron. No.":84,"Landmark":"*Tupper & Reed Building* (Sign of the Piper Restaurant; Metropol; Caf\uFFFD \nPiper; Beckett’s Pub; now Tupper & Reed Cocktail Bar)","City’s No.":"#80","Address":"2271–2275 Shattuck Avenue","City":"Berkeley, CA","Architect & Date":"William Raymond Yelland (1925)","Initiated":"27 Feb 1984","Designated":"19 Mar 1984","Notes":"#82002163, National Register of Historic Places (1982)"}},{"type":"Feature","id":80,"geometry":{"type":"Point","coordinates":[-122.25644743499998,37.866354711000042]},"properties":{"ObjectID":80,"Chron. No.":88,"Landmark":"*People’s Park*","City’s No.":"#84","Address":"2526 Haste Street/2448 Bowditch Street/2551 Dwight Way","City":"Berkeley, CA","Architect & Date":"-1969","Initiated":"17 Sep 1984","Designated":"19 Nov 1984","Notes":"CA State Historic Resources Inventory"}},{"type":"Feature","id":81,"geometry":{"type":"Point","coordinates":[-122.28705415099995,37.875240550000058]},"properties":{"ObjectID":81,"Chron. No.":86,"Landmark":"*Whittier School*","City’s No.":"#82","Address":"1645 Milvia Street at Virginia and Lincoln Streets","City":"Berkeley, CA","Architect & Date":"Dragon, Officer, Schmidts & Hardman (1939)","Initiated":"21 May 1984","Designated":"25 Jun 1984","Notes":"Original interior demolished for renovations in 1994"}},{"type":"Feature","id":82,"geometry":{"type":"Point","coordinates":[-122.26828501699998,37.871167021000076]},"properties":{"ObjectID":82,"Chron. No.":90,"Landmark":"*Mason-McDuffie Building* (Mobilia Furniture)","City’s No.":"#86","Address":"2101 Shattuck Avenue at Addison Street","City":"Berkeley, CA","Architect & Date":"Walter H. Ratcliff, Jr. (1928)","Initiated":"19 Nov 1984","Designated":"21 Jan 1985","Notes":"CA State Historic Resources Inventory"}},{"type":"Feature","id":83,"geometry":{"type":"Point","coordinates":[-122.26804998799997,37.870308001000069]},"properties":{"ObjectID":83,"Chron. No.":89,"Landmark":"*Chamber of Commerce Building* (Wells Fargo Building; American Trust \nBuilding)","City’s No.":"#85","Address":"2140–2144 Shattuck Avenue at Center Street","City":"Berkeley, CA","Architect & Date":"Walter H. Ratcliff, Jr. (1925)","Initiated":"19 Nov 1984","Designated":"17 Dec 1984","Notes":"#85001916, National Register of Historic Places (1985); Conservation \neasement held by CA Preservation Foundation"}},{"type":"Feature","id":84,"geometry":{"type":"Point","coordinates":[-122.270843593,37.869472787000063]},"properties":{"ObjectID":84,"Chron. No.":92,"Landmark":"*Federal Land Bank* (Farm Credit Administration; Civic Center Building)","City’s No.":"#88","Address":"2180 Milvia Street","City":"Berkeley, CA","Architect & Date":"James W. Plachek (1938)","Initiated":"18 Mar 1985","Designated":"15 Apr 1985","Notes":"Civic Center Historic District; #98000963, National Register of Historic \nPlaces (1998)"}},{"type":"Feature","id":85,"geometry":{"type":"Point","coordinates":[-122.27184296699994,37.87007888200003]},"properties":{"ObjectID":85,"Chron. No.":91,"Landmark":"*Veterans’ Memorial Building*","City’s No.":"#89","Address":"1931 Center Street","City":"Berkeley, CA","Architect & Date":"Henry H. Meyers (1928)","Initiated":"18 Mar 1985","Designated":"15 Apr 1985","Notes":"Civic Center Historic District; #98000963, National Register of Historic \nPlaces (1998)"}},{"type":"Feature","id":86,"geometry":{"type":"Point","coordinates":[-122.29780457099997,37.870453805000068]},"properties":{"ObjectID":86,"Chron. No.":94,"Landmark":"*Captain Higgins’ Temperance Grocery Store* (Captain Bowen’s Inn; Heywood & \nSon)","City’s No.":"#92","Address":"834 Delaware Street","City":"Berkeley, CA","Architect & Date":"(1874–75)","Initiated":"28 May 1985","Designated":"17 Jun 1985","Notes":"CA State Historic Resources Inventory"}},{"type":"Feature","id":87,"geometry":{"type":"Point","coordinates":[-122.25656367899995,37.882907092000039]},"properties":{"ObjectID":87,"Chron. No.":93,"Landmark":"*Samuel Hume House* (Hume Cloister; Hume Castle)","City’s No.":"#90","Address":"2900 Buena Vista Way","City":"Berkeley, CA","Architect & Date":"John Hudson Thomas (1927)","Initiated":"15 Apr 1985","Designated":"17 Jun 1985","Notes":"CA State Historic Resources Inventory"}},{"type":"Feature","id":88,"geometry":{"type":"Point","coordinates":[-122.30701929999998,37.881035496000038]},"properties":{"ObjectID":88,"Chron. No.":95,"Landmark":"*Berkeley Municipal Incinerator*","City’s No.":"#93","Address":"1120 Second Street","City":"Berkeley, CA","Architect & Date":"Griscom-Russell Co. (1913)","Initiated":"28 May 1985","Designated":"15 Jul 1985","Notes":null}},{"type":"Feature","id":89,"geometry":{"type":"Point","coordinates":[-122.29402349399999,37.875224994000064]},"properties":{"ObjectID":89,"Chron. No.":96,"Landmark":"*Fullen Market Building* (Henry S. Patton Building)","City’s No.":"#96","Address":"1523–1531 San Pablo Avenue at Hopkins Street","City":"Berkeley, CA","Architect & Date":"(1906–07)","Initiated":"17 Jun 1985","Designated":"15 Jul 1985","Notes":"First assessed in 1907; built for realtor Henry S. Patton"}},{"type":"Feature","id":90,"geometry":{"type":"Point","coordinates":[-122.29223404199996,37.869127997000078]},"properties":{"ObjectID":90,"Chron. No.":97,"Landmark":"*Weisbrod Building* (Guy’s Drugs)","City’s No.":"#94","Address":"2001 San Pablo Avenue at University Avenue","City":"Berkeley, CA","Architect & Date":"Spiveck & Spiveck (1930)","Initiated":"17 Jun 1985","Designated":"15 Jul 1985","Notes":"Structure of Merit"}},{"type":"Feature","id":91,"geometry":{"type":"Point","coordinates":[-122.25040817699994,37.868139813000028]},"properties":{"ObjectID":91,"Chron. No.":98,"Landmark":"*William E. Colby House* (Blossom House)","City’s No.":"#95","Address":"2901 Channing Way","City":"Berkeley, CA","Architect & Date":"Julia Morgan (1905)","Initiated":"17 Jun 1985","Designated":"15 Jul 1985","Notes":"CA State Historic Resources Inventory"}},{"type":"Feature","id":92,"geometry":{"type":"Point","coordinates":[-122.29588419299995,37.868632543000047]},"properties":{"ObjectID":92,"Chron. No.":100,"Landmark":"*Suendermann Plumbing Co.*","City’s No.":"#98","Address":"921 University Avenue","City":"Berkeley, CA","Architect & Date":"-1875","Initiated":"21 Oct 1985","Designated":"18 Nov 1985","Notes":null}},{"type":"Feature","id":93,"geometry":{"type":"Point","coordinates":[-122.26253293599996,37.875244230000078]},"properties":{"ObjectID":93,"Chron. No.":101,"Landmark":"*Benjamin Ide Wheeler House & Garden*","City’s No.":"#99?\n#100?","Address":"1820 Scenic Avenue","City":"Berkeley, CA","Architect & Date":"Edgar A. Mathews (1900); remodeled by Lewis Hobart (1911)","Initiated":"16 Dec 1985","Designated":"13 Jan 1986","Notes":"CA State Historic Resources Inventory"}},{"type":"Feature","id":94,"geometry":{"type":"Point","coordinates":[-122.28734202799996,37.868746998000063]},"properties":{"ObjectID":94,"Chron. No.":102,"Landmark":"*Cooper Woodworking Building & American Photoplayer Co.*","City’s No.":"#102","Address":"1250–60 Addison Street at Bonar","City":"Berkeley, CA","Architect & Date":"Walter Crapo (1912)","Initiated":"17 Mar 1986","Designated":"21 Apr 1986","Notes":null}},{"type":"Feature","id":95,"geometry":{"type":"Point","coordinates":[-122.30352622599997,37.878938302000051]},"properties":{"ObjectID":95,"Chron. No.":103,"Landmark":"*Manasse-Block Tanning Co.*","City’s No.":"#101","Address":"1300 Fourth Street at Gilman Street","City":"Berkeley, CA","Architect & Date":"(1898, 1905, 1906, 1922, 1937)","Initiated":"17 Mar 1986","Designated":"21 Apr 1986","Notes":null}},{"type":"Feature","id":96,"geometry":{"type":"Point","coordinates":[-122.29393486599997,37.851997532000041]},"properties":{"ObjectID":96,"Chron. No.":99,"Landmark":"*Durkee Famous Foods Plant*","City’s No.":"#97","Address":"2900 Fifth Street at Heinz Avenue","City":"Berkeley, CA","Architect & Date":"Paulson & Marini (1916); Trygve Ronneberg (1929)","Initiated":"13 Jun 1985","Designated":"6 Aug 1985","Notes":"CA State Historic Resources Inventory. The Copra Warehouse at 740 Heinz St. \nwas sacrificed in 2013."}},{"type":"Feature","id":97,"geometry":{"type":"Point","coordinates":[-122.29293879199997,37.860417104000078]},"properties":{"ObjectID":97,"Chron. No.":104,"Landmark":"*Kawneer Manufacturing Co.*","City’s No.":"#106","Address":"2547 Eighth Street at Dwight Way","City":"Berkeley, CA","Architect & Date":"Chester H. Miller (1913); Alben Froberg (1947–1950)","Initiated":"12 May 1986","Designated":"21 Jul 1986","Notes":null}},{"type":"Feature","id":98,"geometry":{"type":"Point","coordinates":[-122.26249923999995,37.867058212000074]},"properties":{"ObjectID":98,"Chron. No.":107,"Landmark":"*McCreary-Greer House*","City’s No.":"#109","Address":"2318 Durant Avenue","City":"Berkeley, CA","Architect & Date":"Cornelius S. McNally or Barker Estey [?] (1901)","Initiated":"21 Jul 1986","Designated":"18 Aug 1986","Notes":"CA State Historic Resources Inventory"}},{"type":"Feature","id":99,"geometry":{"type":"Point","coordinates":[-122.26642037799996,37.86702275600004]},"properties":{"ObjectID":99,"Chron. No.":106,"Landmark":"*g. Paul Bishop Studio*","City’s No.":"#104","Address":"2125 Durant Avenue","City":"Berkeley, CA","Architect & Date":"Carl Fox (1938–39)","Initiated":"21 Jun 1986","Designated":"21 Jul 1986","Notes":null}},{"type":"Feature","id":100,"geometry":{"type":"Point","coordinates":[-122.26292328099998,37.867003520000026]},"properties":{"ObjectID":100,"Chron. No.":108,"Landmark":"*Maria Marsh House*","City’s No.":"#107","Address":"2308 Durant Avenue","City":"Berkeley, CA","Architect & Date":"Charles F. Mau (1891)","Initiated":"21 Jul 1986","Designated":"18 Aug 1986","Notes":"CA State Historic Resources Inventory"}},{"type":"Feature","id":101,"geometry":{"type":"Point","coordinates":[-122.26141998599996,37.88042998800006]},"properties":{"ObjectID":101,"Chron. No.":105,"Landmark":"*Kennedy-Nixon House* (Alma Kennedy Studio; Maybeck Recital Hall; Maybeck \nStudio for the Performing Arts)","City’s No.":"#105","Address":"1537 Euclid Avenue at Buena Vista Way","City":"Berkeley, CA","Architect & Date":"Bernard Maybeck (1914; 1923)","Initiated":"21 Jun 1986","Designated":"21 Jul 1986","Notes":"CA State Historic Resources Inventory"}},{"type":"Feature","id":102,"geometry":{"type":"Point","coordinates":[-122.28673199299999,37.852136999000038]},"properties":{"ObjectID":102,"Chron. No.":111,"Landmark":"*H.J. Heinz Co. Factory*","City’s No.":"#112","Address":"2900 San Pablo Avenue at Ashby Avenue","City":"Berkeley, CA","Architect & Date":"Albert Kahn/ Austin Co. (1927)","Initiated":"21 Jul 1986","Designated":"17 Nov 1986","Notes":"CA State Historic Resources Inventory"}},{"type":"Feature","id":103,"geometry":{"type":"Point","coordinates":[-122.29955890299999,37.869176193000044]},"properties":{"ObjectID":103,"Chron. No.":110,"Landmark":"*Davis-Harmes House*","City’s No.":"#108","Address":"1828 Fifth Street","City":"Berkeley, CA","Architect & Date":"C.W. Davis (c. 1890)","Initiated":"21 Jul 1986","Designated":"15 Sep 1986","Notes":"CA State Historic Resources Inventory; moved from 733 Hearst Avenue in the \n1960s"}},{"type":"Feature","id":104,"geometry":{"type":"Point","coordinates":[-122.26819348599997,37.872479836000025]},"properties":{"ObjectID":104,"Chron. No.":109,"Landmark":"*U.S. Realty Corp. Building* (MacFarlane Building)","City’s No.":"#110","Address":"2101–2109 University Avenue/1987–1979 Shattuck Avenue","City":"Berkeley, CA","Architect & Date":"Earle Bertz (1925)","Initiated":"21 Jun 1986","Designated":"15 Sep 1986","Notes":"Formerly Structure of Merit [see No. 70]"}},{"type":"Feature","id":105,"geometry":{"type":"Point","coordinates":[-122.29243539999999,37.858549302000029]},"properties":{"ObjectID":105,"Chron. No.":113,"Landmark":"*J.J. Pfister Knitting Mill*","City’s No.":"#111","Address":"2600–2602 Eighth Street","City":"Berkeley, CA","Architect & Date":"William H. Wharff (1906)","Initiated":"15 Sep 1986","Designated":"17 Nov 1986","Notes":null}},{"type":"Feature","id":106,"geometry":{"type":"Point","coordinates":[-122.26058003599996,37.86606898000008]},"properties":{"ObjectID":106,"Chron. No.":115,"Landmark":"*Haste Street Annex of McKinley School*","City’s No.":"#115","Address":"2419 Haste Street (now 2407 Dana Street)","City":"Berkeley, CA","Architect & Date":"A.H. Broad (1906)","Initiated":"20 Oct 1986","Designated":"26 Jan 1987","Notes":"Structure of Merit\nCA State Historic Resources Inventory"}},{"type":"Feature","id":107,"geometry":{"type":"Point","coordinates":[-122.26232833299997,37.864350983000065]},"properties":{"ObjectID":107,"Chron. No.":116,"Landmark":"*Judge Benjamin Ferris House* (first Alta Bates Hospital)","City’s No.":"#116","Address":"2314 Dwight Way","City":"Berkeley, CA","Architect & Date":"(c. 1868)","Initiated":"20 Oct 1986","Designated":"26 Jan 1987","Notes":"CA State Historic Resources Inventory"}},{"type":"Feature","id":108,"geometry":{"type":"Point","coordinates":[-122.30340133499999,37.87669023400008]},"properties":{"ObjectID":108,"Chron. No.":114,"Landmark":"*California Ink Co. Industrial Site*","City’s No.":"#114","Address":"1326–1404 Fourth Street","City":"Berkeley, CA","Architect & Date":"(1906–1978)","Initiated":"15 Sep 1986","Designated":"17 Nov 1986","Notes":null}},{"type":"Feature","id":109,"geometry":{"type":"Point","coordinates":[-122.25850199499996,37.876272019000055]},"properties":{"ObjectID":109,"Chron. No.":112,"Landmark":"*Allanoke* (Allen G. Freeman House; Robert Sibley House)","City’s No.":"#113","Address":"1777 Le Roy Avenue at Ridge Road","City":"Berkeley, CA","Architect & Date":"Ernest Coxhead (1903)","Initiated":"21 Jul 1986","Designated":"17 Nov 1986","Notes":"CA State Historic Resources Inventory"}},{"type":"Feature","id":110,"geometry":{"type":"Point","coordinates":[-122.26672799399995,37.882653246000075]},"properties":{"ObjectID":110,"Chron. No.":119,"Landmark":"*Hunrick Grocery*","City’s No.":"#119","Address":"2211 Rose Street","City":"Berkeley, CA","Architect & Date":"-1908","Initiated":"23 May 1988","Designated":"19 Sep 1988","Notes":"Structure of Merit\nDemolition permit applied for in April 2004 and approved for adaptive \nreuse; structure demolished in the fall of 2004; fa\uFFFDade reconstructed in \n2005"}},{"type":"Feature","id":111,"geometry":{"type":"Point","coordinates":[-122.28298486299997,37.878905487000054]},"properties":{"ObjectID":111,"Chron. No.":117,"Landmark":"*Old Jefferson Elementary School*","City’s No.":"#117","Address":"1475 Rose Street at Sacramento Street","City":"Berkeley, CA","Architect & Date":"Henry Higby Gutterson (c. 1921); William C. Hays (1927)","Initiated":"26 Jan 1987","Designated":"16 Mar 1987","Notes":"Formerly Structure of Merit [see No. 10]"}},{"type":"Feature","id":112,"geometry":{"type":"Point","coordinates":[-122.25862302899998,37.866025017000027]},"properties":{"ObjectID":112,"Chron. No.":118,"Landmark":"*The Berkeley Inn*","City’s No.":"#118","Address":"2501 Haste Street at Telegraph Avenue","City":"Berkeley, CA","Architect & Date":"Joseph Cather Newsom (1911)","Initiated":"21 Sep 1987","Designated":"9 Nov 1987","Notes":"CA State Historic Resources Inventory; damaged by fires in 1986 & 1990 and \ndemolished"}},{"type":"Feature","id":113,"geometry":{"type":"Point","coordinates":[-122.27356977399995,37.868736149000028]},"properties":{"ObjectID":113,"Chron. No.":122,"Landmark":"*City Hall Annex*","City’s No.":"#122","Address":"1835 Allston Way","City":"Berkeley, CA","Architect & Date":"James W. Plachek (1925)","Initiated":"17 Oct 1988","Designated":"21 Nov 1988","Notes":"Formerly Structure of Merit\n[see No. 71]; CA State Historic Resources Inventory"}},{"type":"Feature","id":114,"geometry":{"type":"Point","coordinates":[-122.25659963799995,37.86245428400008]},"properties":{"ObjectID":114,"Chron. No.":123,"Landmark":"*Berkeley Tennis Club*","City’s No.":"#123","Address":"2624 Hillegass Avenue","City":"Berkeley, CA","Architect & Date":"Ratcliff & Jacobs (1908)","Initiated":"23 Jan 1989","Designated":"15 May 1989","Notes":"CA State Historic Resources Inventory"}},{"type":"Feature","id":115,"geometry":{"type":"Point","coordinates":[-122.25962969599999,37.859691483000063]},"properties":{"ObjectID":115,"Chron. No.":124,"Landmark":"*John Albert Marshall Houses Nos. 3 & 4* (now Rose Garden Inn)","City’s No.":"#125\n#126","Address":"2740 & 2744 Telegraph Avenue","City":"Berkeley, CA","Architect & Date":"C.M. Cook (c. 1903); Cunningham Bros.(1900)","Initiated":"19 Jun 1989","Designated":"18 Sep 1989","Notes":"CA State Historic Resources Inventory"}},{"type":"Feature","id":116,"geometry":{"type":"Point","coordinates":[-122.30055358399994,37.875786288000029]},"properties":{"ObjectID":116,"Chron. No.":121,"Landmark":"*Maurer House*","City’s No.":"#121","Address":"1448 Sixth Street","City":"Berkeley, CA","Architect & Date":"(c. 1850–1874)","Initiated":"17 Oct 1988","Designated":"21 Nov 1988","Notes":"Structure of Merit\nCA State Historic Resources Inventory; demolished"}},{"type":"Feature","id":117,"geometry":{"type":"Point","coordinates":[-122.26577279299994,37.876487140000052]},"properties":{"ObjectID":117,"Chron. No.":125,"Landmark":"*Ernest L. Loring House*","City’s No.":"#128","Address":"1730 Spruce Street","City":"Berkeley, CA","Architect & Date":"John Hudson Thomas (1914)","Initiated":"18 Sep 1989","Designated":"16 Oct 1989","Notes":"#89000857, National Register of Historic Places (1989)"}},{"type":"Feature","id":118,"geometry":{"type":"Point","coordinates":[-122.26997346699994,37.869342658000051]},"properties":{"ObjectID":118,"Chron. No.":128,"Landmark":"*Young Men’s Christian Association* (Downtown YMCA)","City’s No.":"#131","Address":"2001 Allston Way","City":"Berkeley, CA","Architect & Date":"Benjamin G. McDougall (1910)","Initiated":"10 Aug 1989","Designated":"22 Feb 1990","Notes":"CA State Historic Resources Inventory"}},{"type":"Feature","id":119,"geometry":{"type":"Point","coordinates":[-122.25779498099996,37.865201998000032]},"properties":{"ObjectID":119,"Chron. No.":126,"Landmark":"*John Woolley House*","City’s No.":"#127","Address":"2506 Dwight Way at Regent Street","City":"Berkeley, CA","Architect & Date":"-1876","Initiated":"10 Aug 1989","Designated":"16 Oct 1989","Notes":"CA State Historic Resources Inventory; moved from 2509 Haste Street on 8 \nNovember 2014"}},{"type":"Feature","id":120,"geometry":{"type":"Point","coordinates":[-122.25862302899998,37.866025017000027]},"properties":{"ObjectID":120,"Chron. No.":129,"Landmark":"*People’s Bicentennial Mural* (People’s History of Telegraph Avenue)","City’s No.":"#122","Address":"2500 Haste Street at Telegraph Avenue","City":"Berkeley, CA","Architect & Date":"Osha Neumann, with O’Brien Thiele, Daniel Galvez, Hannah\uFFFDKransberg, *et al.* \n(1976)","Initiated":"18 Dec 1989","Designated":"22 Feb 1990","Notes":null}},{"type":"Feature","id":121,"geometry":{"type":"Point","coordinates":[-122.29643446699998,37.857782809000071]},"properties":{"ObjectID":121,"Chron. No.":127,"Landmark":"*Byron Jackson Iron Works* (Cutter Laboratories)","City’s No.":"#124","Address":"700–730 Parker Street, Bldg. #12","City":"Berkeley, CA","Architect & Date":"-1914","Initiated":null,"Designated":"18 Dec 1989","Notes":"Structure of Merit\nDemolished"}},{"type":"Feature","id":122,"geometry":{"type":"Point","coordinates":[-122.25887926399997,37.876742789000048]},"properties":{"ObjectID":122,"Chron. No.":132,"Landmark":"*Oscar Maurer Studio*","City’s No.":"#127? [duplicate]","Address":"1772 Le Roy Avenue","City":"Berkeley, CA","Architect & Date":"Bernard Maybeck (1907)","Initiated":"29 Jan 1990","Designated":"19 Mar 1990","Notes":"CA State Historic Resources Inventory"}},{"type":"Feature","id":123,"geometry":{"type":"Point","coordinates":[-122.25694773799995,37.880935417000046]},"properties":{"ObjectID":123,"Chron. No.":131,"Landmark":"*Kerna Maybeck Gannon House* (Annie Maybeck House)","City’s No.":"#134","Address":"2780 Buena Vista Way","City":"Berkeley, CA","Architect & Date":"Bernard Maybeck (1933)","Initiated":"29 Jan 1990","Designated":"19 Mar 1990","Notes":"CA State Historic Resources Inventory"}},{"type":"Feature","id":124,"geometry":{"type":"Point","coordinates":[-122.25154576899996,37.868084199000066]},"properties":{"ObjectID":124,"Chron. No.":135,"Landmark":"*Sigma Pi Chapter House* (now Phi Gamma Delta)","City’s No.":"#136","Address":"2395 Piedmont Avenue","City":"Berkeley, CA","Architect & Date":"Frederick H. Reimers (1928)","Initiated":"16 Apr 1990","Designated":"21 May 1990","Notes":null}},{"type":"Feature","id":125,"geometry":{"type":"Point","coordinates":[-122.28247635299999,37.897900940000056]},"properties":{"ObjectID":125,"Chron. No.":134,"Landmark":"*Sutliff Rock* (Picnic Rock)","City’s No.":"#137","Address":"550 Santa Rosa Avenue","City":"Berkeley, CA","Architect & Date":null,"Initiated":null,"Designated":"21 May 1990","Notes":"Site of Merit"}},{"type":"Feature","id":126,"geometry":{"type":"Point","coordinates":[-122.25547855799999,37.864382583000065]},"properties":{"ObjectID":126,"Chron. No.":136,"Landmark":"*Arthur Ayers House*","City’s No.":"#138","Address":"2528 Benvenue Avenue","City":"Berkeley, CA","Architect & Date":"-1899","Initiated":"7 May 1990","Designated":"18 Jun 1990","Notes":"CA State Historic Resources Inventory"}},{"type":"Feature","id":127,"geometry":{"type":"Point","coordinates":[-122.25535475799995,37.864263979000043]},"properties":{"ObjectID":127,"Chron. No.":137,"Landmark":"*Morrison House*","City’s No.":"#139","Address":"2532 Benvenue Avenue","City":"Berkeley, CA","Architect & Date":"(c. 1903)","Initiated":"7 May 1990","Designated":"18 Jun 1990","Notes":"Structure of Merit"}},{"type":"Feature","id":128,"geometry":{"type":"Point","coordinates":[-122.25870600999997,37.877179989000069]},"properties":{"ObjectID":128,"Chron. No.":138,"Landmark":"*Weltevreden* (Volney D. Moody House; now Tellefsen Hall)","City’s No.":"#140","Address":"1755 Le Roy Avenue at Le Conte Avenue","City":"Berkeley, CA","Architect & Date":"Albert Cicero Schweinfurth (1896)","Initiated":"29 Jan 1990","Designated":"20 Aug 1990","Notes":"Structure of Merit\nCA State Historic Resources Inventory"}},{"type":"Feature","id":129,"geometry":{"type":"Point","coordinates":[-122.26654811899999,37.863863952000031]},"properties":{"ObjectID":129,"Chron. No.":142,"Landmark":"*Luther M. Williamson Building*","City’s No.":"#143","Address":"2120–2124 Dwight Way","City":"Berkeley, CA","Architect & Date":"-1905","Initiated":"17 Dec 1990","Designated":"25 Feb 1991","Notes":"CA State Historic Resources Inventory"}},{"type":"Feature","id":130,"geometry":{"type":"Point","coordinates":[-122.29740190399997,37.864527170000031]},"properties":{"ObjectID":130,"Chron. No.":141,"Landmark":"*West Berkeley Macaroni Factory*","City’s No.":"#166","Address":"2215 Fifth Street","City":"Berkeley, CA","Architect & Date":"Simone Marengo, builder (1906–07)","Initiated":null,"Designated":"28 Jan 1991","Notes":"Structure of Merit\nCA State Historic Resources Inventory"}},{"type":"Feature","id":131,"geometry":{"type":"Point","coordinates":[-122.26636623099995,37.863828371000068]},"properties":{"ObjectID":131,"Chron. No.":143,"Landmark":"*Williams Building*","City’s No.":"#144","Address":"2126–2128 Dwight Way","City":"Berkeley, CA","Architect & Date":"-1902","Initiated":"17 Dec 1990","Designated":"25 Feb 1991","Notes":null}},{"type":"Feature","id":132,"geometry":{"type":"Point","coordinates":[-122.25373099999996,37.86674400000004]},"properties":{"ObjectID":132,"Chron. No.":140,"Landmark":"*Ernest V. Cowell Memorial Hospital*","City’s No.":"#142","Address":"2215 College Avenue (University of California Campus)","City":"Berkeley, CA","Architect & Date":"Arthur Brown, Jr. (1930)","Initiated":"29 Oct 1990","Designated":"19 Nov 1990","Notes":"#92001730, National Register of Historic Places; demolished in 1993 to \nconstruct the Haas School of Business"}},{"type":"Feature","id":133,"geometry":{"type":"Point","coordinates":[-122.26604847299996,37.863869107000028]},"properties":{"ObjectID":133,"Chron. No.":144,"Landmark":"*Davis-Byrne Building*","City’s No.":"#145","Address":"2138–2140 Dwight Way","City":"Berkeley, CA","Architect & Date":"Anderson & Greig, contractors (1895)","Initiated":"5 Dec 1990","Designated":"25 Feb 1991","Notes":null}},{"type":"Feature","id":134,"geometry":{"type":"Point","coordinates":[-122.25769999999994,37.875300000000038]},"properties":{"ObjectID":134,"Chron. No.":145,"Landmark":"*California Hall*","City’s No.":"#147","Address":"Sather Road, University of California Campus","City":"Berkeley, CA","Architect & Date":"John Galen Howard (1903–1905)","Initiated":"28 Jan 1991","Designated":"25 Feb 1991","Notes":"California Historic Landmark No. 946\n#82004638, National Register of Historic Places (1982)"}},{"type":"Feature","id":135,"geometry":{"type":"Point","coordinates":[-122.25769999999994,37.875300000000038]},"properties":{"ObjectID":135,"Chron. No.":148,"Landmark":"*Durant Hall* (formerly Boalt Hall)","City’s No.":"#146","Address":"Sather Road, University of California Campus","City":"Berkeley, CA","Architect & Date":"John Galen Howard (1908–11)","Initiated":"28 Jan 1991","Designated":"25 Feb 1991","Notes":"California Historic Landmark No. 946\n#82004640, National Register of Historic Places (1982)"}},{"type":"Feature","id":136,"geometry":{"type":"Point","coordinates":[-122.26536899999996,37.867784000000029]},"properties":{"ObjectID":136,"Chron. No.":152,"Landmark":"*Phoebe Apperson Hearst Memorial Gymnasium for Women*","City’s No.":"#154","Address":"Bancroft Way, University of California Campus","City":"Berkeley, CA","Architect & Date":"Bernard Maybeck & Julia Morgan (1925–7)","Initiated":"28 Jan 1991","Designated":"25 Feb 1991","Notes":"California Historic Landmark No. 946\n#82004645, National Register of Historic Places (1982)"}},{"type":"Feature","id":137,"geometry":{"type":"Point","coordinates":[-122.25681396299996,37.875524982000059]},"properties":{"ObjectID":137,"Chron. No.":161,"Landmark":"*Founders’ Rock*","City’s No.":"#149","Address":"Hearst Avenue at Gayley Road, University of California Campus","City":"Berkeley, CA","Architect & Date":null,"Initiated":"28 Jan 1991","Designated":"25 Feb 1991","Notes":"California Historic Landmark No. 946\n#82004642, National Register of Historic Places (1982)"}},{"type":"Feature","id":138,"geometry":{"type":"Point","coordinates":[-122.26955235999998,37.868939614000055]},"properties":{"ObjectID":138,"Chron. No.":164,"Landmark":"*Elks Club*","City’s No.":"#168","Address":"2018 Allston Way","City":"Berkeley, CA","Architect & Date":"Walter H. Ratcliff, Jr. (1913)","Initiated":"19 Aug 1991","Designated":"7 Oct 1991","Notes":"CA State Historic Resources Inventory"}},{"type":"Feature","id":139,"geometry":{"type":"Point","coordinates":[-122.27807382199995,37.869591516000071]},"properties":{"ObjectID":139,"Chron. No.":163,"Landmark":"*St. Joseph the Worker Catholic Church & Grounds* (Site of Presentation \nHigh School)","City’s No.":"#164","Address":"1600–1640 Addison Street","City":"Berkeley, CA","Architect & Date":"Shea & Lofquist (1907)","Initiated":"15 Oct 1990","Designated":"18 Mar 1991","Notes":"CA State Historic Resources Inventory; Grotto demolished"}},{"type":"Feature","id":140,"geometry":{"type":"Point","coordinates":[-122.25762329999998,37.871407200000078]},"properties":{"ObjectID":140,"Chron. No.":162,"Landmark":"*Sather Gate and Bridge*","City’s No.":"#157","Address":"University of California Campus","City":"Berkeley, CA","Architect & Date":"John Galen Howard (1908–10)","Initiated":"28 Jan 1991","Designated":"25 Feb 1991","Notes":"California Historic Landmark No. 946\n#82004649, National Register of Historic Places (1982)"}},{"type":"Feature","id":141,"geometry":{"type":"Point","coordinates":[-122.26680963399997,37.869354602000044]},"properties":{"ObjectID":141,"Chron. No.":167,"Landmark":"*Roberts Studio* (Berkeley Community YWCA)","City’s No.":"#170","Address":"2134 Allston Way","City":"Berkeley, CA","Architect & Date":"Edwin Lewis Snyder (1930)","Initiated":"4 Nov 1991","Designated":"6 Jan 1992","Notes":null}},{"type":"Feature","id":142,"geometry":{"type":"Point","coordinates":[-122.29279286299999,37.868395461000034]},"properties":{"ObjectID":142,"Chron. No.":166,"Landmark":"*West Berkeley YMCA*","City’s No.":"#172","Address":"2009 Tenth Street","City":"Berkeley, CA","Architect & Date":"Walter H. Ratcliff, Jr. (1938)","Initiated":"4 Oct 1991","Designated":"6 Jan 1992","Notes":"Structure of Merit"}},{"type":"Feature","id":143,"geometry":{"type":"Point","coordinates":[-122.25612077999995,37.880742926000039]},"properties":{"ObjectID":143,"Chron. No.":165,"Landmark":"*The Temple of Wings* (Charles C. Boynton House)","City’s No.":"#173","Address":"2800 Buena Vista Way","City":"Berkeley, CA","Architect & Date":"Bernard Maybeck (1911); A. Randolph Monroe (1914); Edna Deakin & Clarence \nDakin (1924)","Initiated":"19 Aug 1991","Designated":"6 Jan 1992","Notes":"CA State Historic Resources Inventory"}},{"type":"Feature","id":144,"geometry":{"type":"Point","coordinates":[-122.25563521599997,37.87240737500008]},"properties":{"ObjectID":144,"Chron. No.":172,"Landmark":"*Kappa Sigma Chapter House*","City’s No.":"#129","Address":"2220 Piedmont Avenue","City":"Berkeley, CA","Architect & Date":"William C. Hays & Clarence Casebolt Dakin (1922)","Initiated":"12 Jun 1992","Designated":"6 Jul 1992","Notes":"CA State Historic Resources Inventory; demolished on 6 Aug 1992 to \nconstruct the Haas School of Business"}},{"type":"Feature","id":145,"geometry":{"type":"Point","coordinates":[-122.27324034099996,37.890549583000052]},"properties":{"ObjectID":145,"Chron. No.":169,"Landmark":"*Northbrae Public Improvements* (Marin Circle; paths; parks; stone monuments\n)","City’s No.":"#175","Address":"Northbrae","City":"Berkeley, CA","Architect & Date":"R.E. Mansell, landscape architect; John Galen Howard, architect (1907–11)","Initiated":"4 Nov 1991","Designated":"3 Feb 1992","Notes":"CA State Historic Resources Inventory"}},{"type":"Feature","id":146,"geometry":{"type":"Point","coordinates":[-122.29867368999999,37.86996371500004]},"properties":{"ObjectID":146,"Chron. No.":170,"Landmark":"*Thomas Andrews House*","City’s No.":"#176","Address":"1812 Sixth Street","City":"Berkeley, CA","Architect & Date":"(c. 1880)","Initiated":"6 Apr 1992","Designated":"15 Jun 1992","Notes":"CA State Historic Resources Inventory"}},{"type":"Feature","id":147,"geometry":{"type":"Point","coordinates":[-122.29865734599997,37.869894690000081]},"properties":{"ObjectID":147,"Chron. No.":171,"Landmark":"*Joseph Alphonso House*","City’s No.":"#169","Address":"1814 Sixth Street","City":"Berkeley, CA","Architect & Date":"(c. 1878)","Initiated":"6 Apr 1992","Designated":"15 Jun 1992","Notes":null}},{"type":"Feature","id":148,"geometry":{"type":"Point","coordinates":[-122.27329831699996,37.881080256000075]},"properties":{"ObjectID":148,"Chron. No.":174,"Landmark":"*Edward Brakenridge House* (Bonita House)","City’s No.":"#178","Address":"1410 Bonita Avenue","City":"Berkeley, CA","Architect & Date":"Ira A. Boynton (1892)","Initiated":"1 Jun 1992","Designated":"6 Oct 1992","Notes":"CA State Historic Resources Inventory"}},{"type":"Feature","id":149,"geometry":{"type":"Point","coordinates":[-122.29535319899998,37.880139094000072]},"properties":{"ObjectID":149,"Chron. No.":173,"Landmark":"*Ashkenaz Music & Dance Community Center*","City’s No.":"#171","Address":"1317 San Pablo Avenue","City":"Berkeley, CA","Architect & Date":"David Nadel, owner-designer (1973)","Initiated":null,"Designated":"8 Sep 1992","Notes":null}},{"type":"Feature","id":150,"geometry":{"type":"Point","coordinates":[-122.26642037799996,37.867561419000026]},"properties":{"ObjectID":150,"Chron. No.":178,"Landmark":"*Bancroft Apartments* (Waste & Clark Apartments)","City’s No.":"#182","Address":"2126 Bancroft Way","City":"Berkeley, CA","Architect & Date":"Walter H. Ratcliff, Jr. (1913)","Initiated":"1 Mar 1993","Designated":"12 Apr 1993","Notes":"CA State Historic Resources Inventory"}},{"type":"Feature","id":151,"geometry":{"type":"Point","coordinates":[-122.25672000199995,37.868103016000077]},"properties":{"ObjectID":151,"Chron. No.":177,"Landmark":"*Hotel Durant*","City’s No.":"#180","Address":"2600 Durant Avenue at Bowditch Street","City":"Berkeley, CA","Architect & Date":"William H. Weeks (1928)","Initiated":"6 Oct 1992","Designated":"1 Feb 1993","Notes":"Structure of Merit\nCA State Historic Resources Inventory"}},{"type":"Feature","id":152,"geometry":{"type":"Point","coordinates":[-122.26585803699999,37.867830981000054]},"properties":{"ObjectID":152,"Chron. No.":175,"Landmark":"*Edwards Stadium & Field*","City’s No.":"#177","Address":"Bancroft Way at Fulton Street, University of California Campus","City":"Berkeley, CA","Architect & Date":"Warren C. Perry & Stafford Jory (1932)","Initiated":"6 Oct 1992","Designated":"2 Nov 1992","Notes":"#93000263, National Register of Historic Places (1993)"}},{"type":"Feature","id":153,"geometry":{"type":"Point","coordinates":[-122.26309209199997,37.862042397000039]},"properties":{"ObjectID":153,"Chron. No.":180,"Landmark":"*Charles W. Woodworth House*","City’s No.":"#183","Address":"2237 Carleton Street","City":"Berkeley, CA","Architect & Date":"Owner-designed (1905)","Initiated":"2 Aug 1993","Designated":"7 Sep 1993","Notes":null}},{"type":"Feature","id":154,"geometry":{"type":"Point","coordinates":[-122.26706092399996,37.87110289900005]},"properties":{"ObjectID":154,"Chron. No.":181,"Landmark":"*Underwood Building* (Virginia Apartments)","City’s No.":"#185","Address":"2110–2114 Addison Street","City":"Berkeley, CA","Architect & Date":"F.E. Armstrong (1905)","Initiated":"7 Sep 1993","Designated":"1 Nov 1993","Notes":"Structure of Merit\nCA State Historic Resources Inventory"}},{"type":"Feature","id":155,"geometry":{"type":"Point","coordinates":[-122.26873646599995,37.871551373000045]},"properties":{"ObjectID":155,"Chron. No.":179,"Landmark":"*Heywood Building*","City’s No.":"#181","Address":"2014–2018 Shattuck Avenue","City":"Berkeley, CA","Architect & Date":"James W. Plachek (1917)","Initiated":"1 Mar 1993","Designated":"12 Apr 1993","Notes":"CA State Historic Resources Inventory"}},{"type":"Feature","id":156,"geometry":{"type":"Point","coordinates":[-122.28019997599995,37.89230002000005]},"properties":{"ObjectID":156,"Chron. No.":182,"Landmark":"*Thousand Oaks Elementary School*","City’s No.":"#184","Address":"840 Colusa Street","City":"Berkeley, CA","Architect & Date":"William C. Hays (1920)","Initiated":"2 Aug 1993","Designated":"6 Dec 1993","Notes":"Demolished in 1997 to make way for new school buildings"}},{"type":"Feature","id":157,"geometry":{"type":"Point","coordinates":[-122.28829999999999,37.869090000000028]},"properties":{"ObjectID":157,"Chron. No.":176,"Landmark":"*Berkeley Community Theater, Little Theater, Berkeley High School Shop & \nScience Buildings*","City’s No.":"#179","Address":"1300 block of Allston Way, Berkeley High School Campus","City":"Berkeley, CA","Architect & Date":"Henry Higby Gutterson & William Corlett, Sr. (1938–1950)","Initiated":"6 Oct 1992","Designated":"7 Dec 1992","Notes":"Civic Center Historic District & Berkeley High School Campus Historic \nDistrict(#98000963 & #7001350, National Register of Historic Places, 3 Dec \n1998 & 7 Jan 2008)"}},{"type":"Feature","id":158,"geometry":{"type":"Point","coordinates":[-122.26933553499998,37.868978972000036]},"properties":{"ObjectID":158,"Chron. No.":184,"Landmark":"*Armstrong College*","City’s No.":"#187","Address":"2220 Harold Way","City":"Berkeley, CA","Architect & Date":"Walter H. Ratcliff, Jr. (1924)","Initiated":"7 Dec 1992","Designated":"6 Sep 1994","Notes":null}},{"type":"Feature","id":159,"geometry":{"type":"Point","coordinates":[-122.27049297799999,37.890489990000049]},"properties":{"ObjectID":159,"Chron. No.":183,"Landmark":"*Elmer Buckman House*","City’s No.":"#186","Address":"920 Shattuck Avenue","City":"Berkeley, CA","Architect & Date":"Walter H. Ratcliff, Jr. (1909)","Initiated":"26 Apr 1994","Designated":"6 Jun 1994","Notes":null}},{"type":"Feature","id":160,"geometry":{"type":"Point","coordinates":[-122.25227030099995,37.865597875000049]},"properties":{"ObjectID":160,"Chron. No.":186,"Landmark":"*Charles Wilkinson House*","City’s No.":"#186? [duplicate]","Address":"2730 Dwight Way","City":"Berkeley, CA","Architect & Date":"Clinton Day (1879)","Initiated":"5 Dec 1994","Designated":"6 Feb 1995","Notes":"CA State Historic Resources Inventory"}},{"type":"Feature","id":161,"geometry":{"type":"Point","coordinates":[-122.26857125899994,37.870866781000075]},"properties":{"ObjectID":161,"Chron. No.":185,"Landmark":"*Francis Kittredge Shattuck Building*","City’s No.":"#185? [duplicate]","Address":"2108 Shattuck Avenue","City":"Berkeley, CA","Architect & Date":"Louis S. Stone & Henry C. Smith (1901)","Initiated":"5 Dec 1994","Designated":"6 Feb 1995","Notes":"CA State Historic Resources Inventory"}},{"type":"Feature","id":162,"geometry":{"type":"Point","coordinates":[-122.25616679599995,37.876852298000074]},"properties":{"ObjectID":162,"Chron. No.":187,"Landmark":"*Charles Keeler House*","City’s No.":"#186? [triplicate]","Address":"1770 Highland Place","City":"Berkeley, CA","Architect & Date":"Bernard Maybeck (1895)","Initiated":"5 Dec 1994","Designated":"3 Mar 1995","Notes":"CA State Historic Resources Inventory"}},{"type":"Feature","id":163,"geometry":{"type":"Point","coordinates":[-122.25749138799995,37.890019597000048]},"properties":{"ObjectID":163,"Chron. No.":190,"Landmark":"*Everett Glass House*","City’s No.":"#190","Address":"70 Twain Avenue","City":"Berkeley, CA","Architect & Date":"William Wurster (1938)","Initiated":"10 Jan 1995","Designated":"3 Apr 1995","Notes":null}},{"type":"Feature","id":164,"geometry":{"type":"Point","coordinates":[-122.25621298099998,37.876979577000043]},"properties":{"ObjectID":164,"Chron. No.":188,"Landmark":"*Charles Keeler Studio*","City’s No.":"#187? [duplicate]","Address":"1736 Highland Place","City":"Berkeley, CA","Architect & Date":"Bernard Maybeck (c. 1902)","Initiated":"5 Dec 1994","Designated":"3 Mar 1995","Notes":"CA State Historic Resources Inventory"}},{"type":"Feature","id":165,"geometry":{"type":"Point","coordinates":[-122.26266012599996,37.885497843000053]},"properties":{"ObjectID":165,"Chron. No.":189,"Landmark":"*Berkeley Municipal Rose Garden*","City’s No.":"#189","Address":"Euclid Avenue between Bay View Place & Eunice Street","City":"Berkeley, CA","Architect & Date":"Vernon M. Dean (1933–1937)","Initiated":"5 Dec 1994","Designated":"3 Mar 1995","Notes":null}},{"type":"Feature","id":166,"geometry":{"type":"Point","coordinates":[-122.25687431299997,37.878734706000046]},"properties":{"ObjectID":166,"Chron. No.":193,"Landmark":"*Jensen House*","City’s No.":"#194","Address":"1675 La Loma Avenue","City":"Berkeley, CA","Architect & Date":"(George P. Jensen & A. Edgar Jensen, 1891)","Initiated":"5 Aug 1996","Designated":"7 Oct 1996","Notes":"CA State Historic Resources Inventory"}},{"type":"Feature","id":167,"geometry":{"type":"Point","coordinates":[-122.27879064299998,37.858398071000067]},"properties":{"ObjectID":167,"Chron. No.":195,"Landmark":"*Longfellow School*","City’s No.":"#196","Address":"1500 Derby Street","City":"Berkeley, CA","Architect & Date":"William C. Hays (1922); James W. Plachek (1930)","Initiated":"5 Sep 1995","Designated":"2 Dec 1996","Notes":null}},{"type":"Feature","id":168,"geometry":{"type":"Point","coordinates":[-122.26536899999996,37.867784000000029]},"properties":{"ObjectID":168,"Chron. No.":192,"Landmark":"*Harmon Gymnasium*","City’s No.":"#193","Address":"Bancroft Way, University of California Campus","City":"Berkeley, CA","Architect & Date":"George W. Kelham (1932)","Initiated":"6 May 1996","Designated":"3 Sep 1996","Notes":"Altered beyond recognition when reconstructed as Haas Pavilion in 1998"}},{"type":"Feature","id":169,"geometry":{"type":"Point","coordinates":[-122.25762329999998,37.871407200000078]},"properties":{"ObjectID":169,"Chron. No.":194,"Landmark":"*U.C. Berkeley Campus Landscape Features*","City’s No.":"#195","Address":"University of California Campus","City":"Berkeley, CA","Architect & Date":"Various (various)","Initiated":"3 Sep 1996","Designated":"4 Nov 1996","Notes":null}},{"type":"Feature","id":170,"geometry":{"type":"Point","coordinates":[-122.27246071299999,37.870485404000078]},"properties":{"ObjectID":170,"Chron. No.":196,"Landmark":"*Fram\uFFFDt Lodge #405 of the Vasa Order of America*","City’s No.":"#197","Address":"1900 Addison Street","City":"Berkeley, CA","Architect & Date":"Sanford G. Jackson (1927)","Initiated":"6 Jan 1997","Designated":"7 Apr 1997","Notes":null}},{"type":"Feature","id":171,"geometry":{"type":"Point","coordinates":[-122.25497047599998,37.864000548000035]},"properties":{"ObjectID":171,"Chron. No.":197,"Landmark":"*Charles John Dickman House & Cottages*","City’s No.":"#198","Address":"2549, 2551, 2551B, 2553, 2555 & 2555B Benvenue Avenue","City":"Berkeley, CA","Architect & Date":"(c. 1894 to 1905)","Initiated":"5 May 1997","Designated":"7 Jul 1997","Notes":"CA State Historic Resources Inventory"}},{"type":"Feature","id":172,"geometry":{"type":"Point","coordinates":[-122.25466760899997,37.863972875000059]},"properties":{"ObjectID":172,"Chron. No.":198,"Landmark":"*Harley & Villa Wiley House & Cottages*","City’s No.":"#199","Address":"2545 Benvenue Avenue","City":"Berkeley, CA","Architect & Date":"-1897","Initiated":"5 May 1997","Designated":"7 Jul 1997","Notes":null}},{"type":"Feature","id":173,"geometry":{"type":"Point","coordinates":[-122.25480741899997,37.864116080000031]},"properties":{"ObjectID":173,"Chron. No.":199,"Landmark":"*Jennie C. Smith House*","City’s No.":"#200","Address":"2539 Benvenue Avenue","City":"Berkeley, CA","Architect & Date":"George Frederick Estey (1897)","Initiated":"5 May 1997","Designated":"7 Jul 1997","Notes":null}},{"type":"Feature","id":174,"geometry":{"type":"Point","coordinates":[-122.26032204099999,37.88087598900006]},"properties":{"ObjectID":174,"Chron. No.":191,"Landmark":"*La Loma Steps*","City’s No.":"#191","Address":"Pathway linking 1500 block of Le Roy Avenue & 2500 block of Buena Vista Way","City":"Berkeley, CA","Architect & Date":"(c. 1910)","Initiated":"5 Sep 1995","Designated":"2 Oct 1995","Notes":null}},{"type":"Feature","id":175,"geometry":{"type":"Point","coordinates":[-122.25506633599997,37.868599644000028]},"properties":{"ObjectID":175,"Chron. No.":200,"Landmark":"*Dr. Cornelius Beach Bradley House* (now Theta Xi Chapter House)","City’s No.":"#201","Address":"2639 Durant Avenue","City":"Berkeley, CA","Architect & Date":"Edgar A. Mathews (1897)","Initiated":"6 Oct 1997","Designated":"3 Nov 1997","Notes":"CA State Historic Resources Inventory"}},{"type":"Feature","id":176,"geometry":{"type":"Point","coordinates":[-122.25710598899997,37.865012566000075]},"properties":{"ObjectID":176,"Chron. No.":203,"Landmark":"*George Edwards House*","City’s No.":"#204","Address":"2530 Dwight Way","City":"Berkeley, CA","Architect & Date":"A.H. Broad (1886)","Initiated":null,"Designated":"6 Apr 1998","Notes":null}},{"type":"Feature","id":177,"geometry":{"type":"Point","coordinates":[-122.25744361199997,37.877604993000034]},"properties":{"ObjectID":177,"Chron. No.":202,"Landmark":"*Rev. Dr. Robert Bentley House*","City’s No.":"#203","Address":"2683 Le Conte Avenue","City":"Berkeley, CA","Architect & Date":"A.H. Broad (1900)","Initiated":null,"Designated":"2 Feb 1998","Notes":null}},{"type":"Feature","id":178,"geometry":{"type":"Point","coordinates":[-122.26703158699996,37.869251882000071]},"properties":{"ObjectID":178,"Chron. No.":204,"Landmark":"*Berkeley Farm Creamery, John Hinkel Livery Stable, & S. J. Sill Warehouse* \n(American Red Cross)","City’s No.":"#205","Address":"2108–2116 Allston Way","City":"Berkeley, CA","Architect & Date":"(1900–1951)","Initiated":null,"Designated":"1 Jun 1998","Notes":"Structure of Merit\nCA State Historic Resources Inventory; demolished in 1999"}},{"type":"Feature","id":179,"geometry":{"type":"Point","coordinates":[-122.26533047999999,37.856124941000076]},"properties":{"ObjectID":179,"Chron. No.":205,"Landmark":"*Josiah J. Rose-Goldsmith House*","City’s No.":"#206","Address":"2919 Lorina Street","City":"Berkeley, CA","Architect & Date":"Josiah John Rose, builder (1891)","Initiated":"1 Jun 1998","Designated":"8 Sep 1998","Notes":null}},{"type":"Feature","id":180,"geometry":{"type":"Point","coordinates":[-122.25997410799999,37.875340622000067]},"properties":{"ObjectID":180,"Chron. No.":207,"Landmark":"*Euclid Apartments* (Proctor Apartments)","City’s No.":"#208","Address":"1865 Euclid Avenue","City":"Berkeley, CA","Architect & Date":"John Galen Howard (1912)","Initiated":null,"Designated":"8 Sep 1998","Notes":"CA State Historic Resources Inventory"}},{"type":"Feature","id":181,"geometry":{"type":"Point","coordinates":[-122.25651104099995,37.865373994000038]},"properties":{"ObjectID":181,"Chron. No.":206,"Landmark":"*Hobart Hall* (Baptist Divinity School)","City’s No.":"#207","Address":"2606 Dwight Way at Hillegass Avenue","City":"Berkeley, CA","Architect & Date":"Julia Morgan (1918–19)","Initiated":"13 Jul 1998","Designated":"8 Sep 1998","Notes":"Subsumed under Landmark #215 [see No. 214]; CA State Historic Resources \nInventory"}},{"type":"Feature","id":182,"geometry":{"type":"Point","coordinates":[-122.25116523099996,37.864762492000068]},"properties":{"ObjectID":182,"Chron. No.":208,"Landmark":"*Merton Joseph Congdon House*","City’s No.":"#209","Address":"2527 Piedmont Avenue","City":"Berkeley, CA","Architect & Date":"George Embury (1894)","Initiated":"8 Sep 1998","Designated":"2 Nov 1998","Notes":"Structure of Merit"}},{"type":"Feature","id":183,"geometry":{"type":"Point","coordinates":[-122.26752720899998,37.878423737000048]},"properties":{"ObjectID":183,"Chron. No.":212,"Landmark":"*North Berkeley Congregational Church* (Grace North Church; Christ Church \nEast Bay)","City’s No.":"#213","Address":"2138 Cedar Street","City":"Berkeley, CA","Architect & Date":"James W. Plachek (1913)","Initiated":"9 Oct 1998","Designated":"4 Jan 1999","Notes":null}},{"type":"Feature","id":184,"geometry":{"type":"Point","coordinates":[-122.27816334099998,37.870540893000054]},"properties":{"ObjectID":184,"Chron. No.":210,"Landmark":"*Fox Common*","City’s No.":"#211","Address":"1670–1676 University Avenue","City":"Berkeley, CA","Architect & Date":"Fox Brothers; Carl Fox, designer (c. 1931 to c. 1983)","Initiated":"8 Sep 1998","Designated":"7 Dec 1998","Notes":null}},{"type":"Feature","id":185,"geometry":{"type":"Point","coordinates":[-122.29969745599999,37.867885045000037]},"properties":{"ObjectID":185,"Chron. No.":209,"Landmark":"*Spenger’s Fish Grotto*","City’s No.":"#210","Address":"1915–1955 Fourth Street","City":"Berkeley, CA","Architect & Date":"(c. 1890)","Initiated":null,"Designated":"2 Nov 1998","Notes":"CA State Historic Resources Inventory"}},{"type":"Feature","id":186,"geometry":{"type":"Point","coordinates":[-122.25751653399999,37.877016919000027]},"properties":{"ObjectID":186,"Chron. No.":213,"Landmark":"*Theta Xi Chapter House* (Toad Hall; Living Love Center; now Kingman Hall)","City’s No.":"#214","Address":"1730 La Loma Avenue","City":"Berkeley, CA","Architect & Date":"Drysdale & Thomsen (1914)","Initiated":"5 Oct 1998","Designated":"4 Jan 1999","Notes":"CA State Historic Resources Inventory"}},{"type":"Feature","id":187,"geometry":{"type":"Point","coordinates":[-122.25605908899996,37.867087297000069]},"properties":{"ObjectID":187,"Chron. No.":215,"Landmark":"*Rose & William Berteaux Cottage* (Fox Cottage)","City’s No.":"#216","Address":"2612 Channing Way","City":"Berkeley, CA","Architect & Date":"Fox Brothers; Carl Fox, designer (1930)","Initiated":null,"Designated":"7 Jun 1999","Notes":"CA State Historic Resources Inventory; moved to 2350 Bowditch Street in 2001"}},{"type":"Feature","id":188,"geometry":{"type":"Point","coordinates":[-122.24953101099999,37.870074607000049]},"properties":{"ObjectID":188,"Chron. No.":216,"Landmark":"*Charles H. Rieber House*","City’s No.":"#217","Address":"15 Canyon Road","City":"Berkeley, CA","Architect & Date":"Ernest Coxhead (1904)","Initiated":null,"Designated":"7 Jun 1999","Notes":"CA State Historic Resources Inventory"}},{"type":"Feature","id":189,"geometry":{"type":"Point","coordinates":[-122.25786211999997,37.867666990000032]},"properties":{"ObjectID":189,"Chron. No.":218,"Landmark":"*The Brasfield* (Stratford Hotel; now Beau Sky Hotel)","City’s No.":"#219","Address":"2520 Durant Avenue","City":"Berkeley, CA","Architect & Date":"Shea & Lofquist (1911)","Initiated":null,"Designated":"13 Sep 1999","Notes":"CA State Historic Resources Inventory"}},{"type":"Feature","id":190,"geometry":{"type":"Point","coordinates":[-122.25587335399996,37.865457326000069]},"properties":{"ObjectID":190,"Chron. No.":214,"Landmark":"*Baptist Divinity School* (American Baptist Seminary of the West)","City’s No.":"#215","Address":"2606 Dwight Way, between Hillegass and Benvenue Avenues","City":"Berkeley, CA","Architect & Date":"(1918–1964)","Initiated":"2 Nov 1998","Designated":"1 Feb 1999","Notes":"[See No. 206]"}},{"type":"Feature","id":191,"geometry":{"type":"Point","coordinates":[-122.27026901299996,37.89120458900004]},"properties":{"ObjectID":191,"Chron. No.":217,"Landmark":"*George Lewis Bell House*","City’s No.":"#218","Address":"2118 Marin Avenue","City":"Berkeley, CA","Architect & Date":"Julia Morgan (1914)","Initiated":"12 Jul 1999","Designated":"2 Aug 1999","Notes":"CA State Historic Resources Inventory"}},{"type":"Feature","id":192,"geometry":{"type":"Point","coordinates":[-122.25806403999997,37.865046010000071]},"properties":{"ObjectID":192,"Chron. No.":219,"Landmark":"*The Ellen Blood House* (Tompkins House)","City’s No.":"#220","Address":"2508 Regent Street","City":"Berkeley, CA","Architect & Date":"R. Gray Frise (1891)","Initiated":null,"Designated":"13 Sep 1999","Notes":"Structure of Merit\nCA State Historic Resources Inventory; moved from 2526 Durant Avenue on 16 \nAugust 2014"}},{"type":"Feature","id":193,"geometry":{"type":"Point","coordinates":[-122.25739063799995,37.867727968000054]},"properties":{"ObjectID":193,"Chron. No.":220,"Landmark":"*The Albra*","City’s No.":"#221","Address":"2530–2534 Durant Avenue","City":"Berkeley, CA","Architect & Date":"Walter H. Ratcliff, Jr. (1921)","Initiated":"1999","Designated":"13 Sep 1999","Notes":"Structure of Merit"}},{"type":"Feature","id":194,"geometry":{"type":"Point","coordinates":[-122.25745811199999,37.867354806000037]},"properties":{"ObjectID":194,"Chron. No.":221,"Landmark":"*The Robcliff Apartment House*","City’s No.":"#222","Address":"2515 Channing Way","City":"Berkeley, CA","Architect & Date":"Walter H. Ratcliff, Jr. (1921)","Initiated":"12 Jul 1999","Designated":"13 Sep 1999","Notes":"Structure of Merit"}},{"type":"Feature","id":195,"geometry":{"type":"Point","coordinates":[-122.25745811199999,37.867354806000037]},"properties":{"ObjectID":195,"Chron. No.":222,"Landmark":"*Epworth Hall*","City’s No.":"#223","Address":"2521 Channing Way","City":"Berkeley, CA","Architect & Date":"James W. Plachek (1927)","Initiated":"12 Jul 1999","Designated":"13 Sep 1999","Notes":null}},{"type":"Feature","id":196,"geometry":{"type":"Point","coordinates":[-122.25740782099996,37.865086160000033]},"properties":{"ObjectID":196,"Chron. No.":223,"Landmark":"*Alexander C. Stuart House*","City’s No.":"#224","Address":"2524 Dwight Way","City":"Berkeley, CA","Architect & Date":"Pissis & Moore (1891)","Initiated":"12 Jul 1999","Designated":"13 Sep 1999","Notes":"CA State Historic Resources Inventory"}},{"type":"Feature","id":197,"geometry":{"type":"Point","coordinates":[-122.26853119299994,37.880559027000061]},"properties":{"ObjectID":197,"Chron. No.":224,"Landmark":"*Vine Street Pumping Plant*","City’s No.":"#225","Address":"2113 Vine Street","City":"Berkeley, CA","Architect & Date":"A.J. Calleri (1930)","Initiated":"12 Apr 1999","Designated":"4 Oct 1999","Notes":null}},{"type":"Feature","id":198,"geometry":{"type":"Point","coordinates":[-122.25606202299997,37.866527470000051]},"properties":{"ObjectID":198,"Chron. No.":225,"Landmark":"*Casa Bonita Apartments*","City’s No.":"#226","Address":"2605 Haste Street","City":"Berkeley, CA","Architect & Date":"John Albert Marshall II (1928)","Initiated":null,"Designated":"1 Nov 1999","Notes":"CA State Historic Resources Inventory"}},{"type":"Feature","id":199,"geometry":{"type":"Point","coordinates":[-122.25455596199998,37.869283984000049]},"properties":{"ObjectID":199,"Chron. No.":228,"Landmark":"*Westminster House & Grounds* (Unitas House)","City’s No.":"#229","Address":"2700 Bancroft Way at College Avenue","City":"Berkeley, CA","Architect & Date":"Walter H. Ratcliff, Jr. (1926)","Initiated":"6 Mar 2000","Designated":"3 Apr 2000","Notes":"CA State Historic Resources Inventory"}},{"type":"Feature","id":200,"geometry":{"type":"Point","coordinates":[-122.26779000699997,37.869822750000026]},"properties":{"ObjectID":200,"Chron. No.":226,"Landmark":"*F.D. Chase Building*","City’s No.":"#227","Address":"2107–2111 Shattuck Avenue","City":"Berkeley, CA","Architect & Date":"William H. Wharff (1909)","Initiated":"6 Dec 1999","Designated":"3 Jan 2000","Notes":"Structure of Merit"}},{"type":"Feature","id":201,"geometry":{"type":"Point","coordinates":[-122.26882313499999,37.879283679000025]},"properties":{"ObjectID":201,"Chron. No.":229,"Landmark":"*Swink House, Cottage & Garden*","City’s No.":"#230","Address":"1525–1529 Shattuck Avenue","City":"Berkeley, CA","Architect & Date":"James L. Swink (1900 & 1903)","Initiated":"3 Apr 2000","Designated":"1 May 2000","Notes":"Structure of Merit"}},{"type":"Feature","id":202,"geometry":{"type":"Point","coordinates":[-122.27945314799996,37.863602395000044]},"properties":{"ObjectID":202,"Chron. No.":230,"Landmark":"*John Hunter House*","City’s No.":"#231","Address":"2418 California Street","City":"Berkeley, CA","Architect & Date":"-1894","Initiated":null,"Designated":"5 Jun 2000","Notes":"Structure of Merit"}},{"type":"Feature","id":203,"geometry":{"type":"Point","coordinates":[-122.25445898399994,37.868352001000062]},"properties":{"ObjectID":203,"Chron. No.":232,"Landmark":"*Unit 1* (U.C. dormitories & dining commons)","City’s No.":"#232","Address":"Durant Avenue at College Avenue","City":"Berkeley, CA","Architect & Date":"Warnecke & Warnecke (1956–59)","Initiated":"10 Jul 2000","Designated":"Sep 2000","Notes":"Designated for the sake of the wing-roofed dining commons, which were \ndemolishd in early 2003."}},{"type":"Feature","id":204,"geometry":{"type":"Point","coordinates":[-122.25811533699999,37.863483791000078]},"properties":{"ObjectID":204,"Chron. No.":234,"Landmark":"*J. Gorman & Son Building*","City’s No.":"#234","Address":"2599 Telegraph Avenue","City":"Berkeley, CA","Architect & Date":"(c. 1877, 1906)","Initiated":null,"Designated":"4 Dec 2000","Notes":"CA State Historic Resources Inventory"}},{"type":"Feature","id":205,"geometry":{"type":"Point","coordinates":[-122.25408397699999,37.866567996000072]},"properties":{"ObjectID":205,"Chron. No.":233,"Landmark":"*Unit 2* (U.C. dormitories & dining commons)","City’s No.":"#233","Address":"Haste Street at College Avenue","City":"Berkeley, CA","Architect & Date":"Warnecke & Warnecke (1956–60)","Initiated":"10 Jul 2000","Designated":"Sep 2000","Notes":"Designated for the sake of the wing-roofed dining commons, which were \ndemolishd in early 2003."}},{"type":"Feature","id":206,"geometry":{"type":"Point","coordinates":[-122.27742757799996,37.899210480000079]},"properties":{"ObjectID":206,"Chron. No.":231,"Landmark":"*John Hopkins Spring Estate* (Spring Mansion)","City’s No.":"#231","Address":"1960 San Antonio Road at Arlington Avenue","City":"Berkeley, CA","Architect & Date":"John Hudson Thomas (1912)","Initiated":"2000","Designated":"3 Jul 2000","Notes":"CA State Historic Resources Inventory"}},{"type":"Feature","id":207,"geometry":{"type":"Point","coordinates":[-122.30047403899999,37.866949415000079]},"properties":{"ObjectID":207,"Chron. No.":237,"Landmark":"*Southern Pacific Railroad Station*","City’s No.":"#237","Address":"700 University Avenue","City":"Berkeley, CA","Architect & Date":"Southern Pacific R.R. Architectural Bureau (1913)","Initiated":"Nov 2000","Designated":"5 Mar 2001","Notes":"CA State Historic Resources Inventory"}},{"type":"Feature","id":208,"geometry":{"type":"Point","coordinates":[-122.27703178399997,37.889168583000071]},"properties":{"ObjectID":208,"Chron. No.":235,"Landmark":"*Ralph White House*","City’s No.":"#235","Address":"1841 Marin Avenue","City":"Berkeley, CA","Architect & Date":"Julia Morgan (1913)","Initiated":null,"Designated":"8 Jan 2001","Notes":"CA State Historic Resources Inventory"}},{"type":"Feature","id":209,"geometry":{"type":"Point","coordinates":[-122.29049270099995,37.868095682000046]},"properties":{"ObjectID":209,"Chron. No.":240,"Landmark":"*John Brennan House*","City’s No.":"#240","Address":"1124–1126 Addison Street","City":"Berkeley, CA","Architect & Date":"Peter Crinnion (1891)","Initiated":"4 Jun 2001","Designated":"9 Jul 2001","Notes":null}},{"type":"Feature","id":210,"geometry":{"type":"Point","coordinates":[-122.23865171999995,37.855582716000072]},"properties":{"ObjectID":210,"Chron. No.":239,"Landmark":"*Walter H. Farley House*","City’s No.":"#239","Address":"147 Tunnel Road","City":"Berkeley, CA","Architect & Date":"Walter H. Ratcliff Jr. (1922)","Initiated":"4 Jun 2001","Designated":"9 Jul 2001","Notes":"Structure of Merit"}},{"type":"Feature","id":211,"geometry":{"type":"Point","coordinates":[-122.28622790499998,37.869341945000031]},"properties":{"ObjectID":211,"Chron. No.":241,"Landmark":"*Santa Fe Railway Station* (now Montessori School)","City’s No.":"#241","Address":"1310 University Avenue","City":"Berkeley, CA","Architect & Date":"Charles Frederick Whittlesey (1903)","Initiated":"9 Jul 2001","Designated":"10 Sep 2001","Notes":"CA State Historic Resources Inventory"}},{"type":"Feature","id":212,"geometry":{"type":"Point","coordinates":[-122.27535263699997,37.885442072000046]},"properties":{"ObjectID":212,"Chron. No.":243,"Landmark":"*Berkeley Public Library, North Branch*","City’s No.":"#243","Address":"1170 The Alameda","City":"Berkeley, CA","Architect & Date":"James W. Plachek (1936)","Initiated":"13 Aug 2001","Designated":"1 Oct 2001","Notes":"CA State Historic Resources Inventory"}},{"type":"Feature","id":213,"geometry":{"type":"Point","coordinates":[-122.26718329899995,37.868856884000024]},"properties":{"ObjectID":213,"Chron. No.":242,"Landmark":"*Alphonso H. Broad House & Storefronts*","City’s No.":"#242","Address":"2115-17-19 Kittredge Street","City":"Berkeley, CA","Architect & Date":"A.H. Broad (1894)","Initiated":"9 Jul 2001","Designated":"1 Oct 2001","Notes":"Structure of Merit\nCA State Historic Resources Inventory"}},{"type":"Feature","id":214,"geometry":{"type":"Point","coordinates":[-122.26983717699994,37.87174411500007]},"properties":{"ObjectID":214,"Chron. No.":245,"Landmark":"*UC Theater*","City’s No.":"#245","Address":"2036 University Avenue","City":"Berkeley, CA","Architect & Date":"James W. Plachek (1916)","Initiated":null,"Designated":"6 May 2002","Notes":"CA State Historic Resources Inventory"}},{"type":"Feature","id":215,"geometry":{"type":"Point","coordinates":[-122.27655694899994,37.895751185000051]},"properties":{"ObjectID":215,"Chron. No.":246,"Landmark":"*Wallace & Lucy Macgregor House*","City’s No.":"#246","Address":"1962 Yosemite Road","City":"Berkeley, CA","Architect & Date":"Julia Morgan (c. 1920)","Initiated":"8 Apr 2002","Designated":"3 Jun 2002","Notes":"CA State Historic Resources Inventory"}},{"type":"Feature","id":216,"geometry":{"type":"Point","coordinates":[-122.28492233999998,37.866162061000068]},"properties":{"ObjectID":216,"Chron. No.":247,"Landmark":"*City of Berkeley Corporation Yard Building* (Facilities Maintenance Bldg.)","City’s No.":"#247","Address":"1326 Allston Way","City":"Berkeley, CA","Architect & Date":"Walter H. Ratcliff, Jr. (1916)","Initiated":"3 Mar 2002","Designated":"1 Jul 2002","Notes":"CA State Historic Resources Inventory"}},{"type":"Feature","id":217,"geometry":{"type":"Point","coordinates":[-122.25835003099996,37.881193244000031]},"properties":{"ObjectID":217,"Chron. No.":244,"Landmark":"*La Loma Park Historic District*","City’s No.":"#244","Address":"La Loma Avenue between La Vereda Road & Buena Vista Way","City":"Berkeley, CA","Architect & Date":"Various (various)","Initiated":"7 Jan 2002","Designated":"6 May 2002","Notes":"Historic District including 13 houses"}},{"type":"Feature","id":218,"geometry":{"type":"Point","coordinates":[-122.24769042899999,37.857056380000074]},"properties":{"ObjectID":218,"Chron. No.":248,"Landmark":"*Jeffress House*","City’s No.":"#248","Address":"2944 Elmwood Court","City":"Berkeley, CA","Architect & Date":"John Hudson Thomas (1920)","Initiated":"28 Feb 2002","Designated":"1 Jul 2002","Notes":"Structure of Merit"}},{"type":"Feature","id":219,"geometry":{"type":"Point","coordinates":[-122.25741134099997,37.882112739000036]},"properties":{"ObjectID":219,"Chron. No.":250,"Landmark":"*Maybeck Cottage*","City’s No.":"#250","Address":"1 Maybeck Twin Drive","City":"Berkeley, CA","Architect & Date":"Bernard Maybeck (1924)","Initiated":"4 Feb 2002","Designated":"9 Dec 2002","Notes":null}},{"type":"Feature","id":220,"geometry":{"type":"Point","coordinates":[-122.26640763799998,37.88172021400004]},"properties":{"ObjectID":220,"Chron. No.":251,"Landmark":"*Carrick House & Dunster Cottages*","City’s No.":"#251","Address":"1418 Spruce Street","City":"Berkeley, CA","Architect & Date":"Adolph Kschieschang, builder (1885)","Initiated":"9 Sep 2002","Designated":"9 Dec 2002","Notes":null}},{"type":"Feature","id":221,"geometry":{"type":"Point","coordinates":[-122.25600485799998,37.86327248300006]},"properties":{"ObjectID":221,"Chron. No.":252,"Landmark":"*John A. Marshall-Erik O. Lindblom House*","City’s No.":"#252","Address":"2601 Hillegass Avenue","City":"Berkeley, CA","Architect & Date":"Cunningham Brothers (1897)","Initiated":"3 Feb 2003","Designated":"3 Mar 2003","Notes":"CA State Historic Resources Inventory"}},{"type":"Feature","id":222,"geometry":{"type":"Point","coordinates":[-122.25719600999997,37.881734966000067]},"properties":{"ObjectID":222,"Chron. No.":249,"Landmark":"*J.B. Tufts House* (Tufts House #3)","City’s No.":"#249","Address":"2733 Buena Vista Way","City":"Berkeley, CA","Architect & Date":"Bernard Maybeck (1931)","Initiated":"3 Jun 2002","Designated":"1 Jul 2002","Notes":"CA State Historic Resources Inventory"}},{"type":"Feature","id":223,"geometry":{"type":"Point","coordinates":[-122.26715873999996,37.871585613000036]},"properties":{"ObjectID":223,"Chron. No.":254,"Landmark":"*Heywood Apartments*","City’s No.":"#254","Address":"2119 Addison Street","City":"Berkeley, CA","Architect & Date":"-1906","Initiated":"3 Feb 2003","Designated":"7 Apr 2003","Notes":"CA State Historic Resources Inventory"}},{"type":"Feature","id":224,"geometry":{"type":"Point","coordinates":[-122.26575418499999,37.864828542000055]},"properties":{"ObjectID":224,"Chron. No.":255,"Landmark":"*Bertha Boss\uFFFD Cottage (southern)*","City’s No.":"#259","Address":"2426 Fulton Street","City":"Berkeley, CA","Architect & Date":"Vietch & Knowles (1884)","Initiated":"9 Sep 2002","Designated":"5 May 2003","Notes":"CA State Historic Resources Inventory; [see No. 260]"}},{"type":"Feature","id":225,"geometry":{"type":"Point","coordinates":[-122.26573130199995,37.864702897000029]},"properties":{"ObjectID":225,"Chron. No.":256,"Landmark":"*John Kueffer House*","City’s No.":"#255","Address":"2430 Fulton Street","City":"Berkeley, CA","Architect & Date":"-1891","Initiated":"9 Sep 2002","Designated":"5 May 2003","Notes":null}},{"type":"Feature","id":226,"geometry":{"type":"Point","coordinates":[-122.26794999199996,37.868489003000036]},"properties":{"ObjectID":226,"Chron. No.":253,"Landmark":"*Brooks Apartments* (Amherst Hotel)","City’s No.":"#253","Address":"2231 Shattuck Avenue at Kittredge Street","City":"Berkeley, CA","Architect & Date":"Meyers & Ward (1906)","Initiated":"3 Feb 2003","Designated":"7 Apr 2003","Notes":"CA State Historic Resources Inventory"}},{"type":"Feature","id":227,"geometry":{"type":"Point","coordinates":[-122.29091355699995,37.869562305000045]},